state_fips,state,state_abbr,zipcode,county,city,Lat,Long
1,Alabama,AL,35004,St. Clair,Acmar,33.60343,-86.4938
1,Alabama,AL,35005,Jefferson,Adamsville,33.59595,-87.0006
1,Alabama,AL,35006,Jefferson,Adger,33.42277,-87.2097
1,Alabama,AL,35007,Shelby,Keystone,33.21562,-86.7977
1,Alabama,AL,35010,Tallapoosa,New site,32.91672,-85.9406
1,Alabama,AL,35014,Talladega,Alpine,33.35585,-86.2617
1,Alabama,AL,35016,Marshall,Arab,34.32387,-86.502
1,Alabama,AL,35019,Cullman,Baileyton,34.30208,-86.6341
1,Alabama,AL,35020,Jefferson,Bessemer,33.40243,-86.9518
1,Alabama,AL,35022,Jefferson,Zcta 35022,33.32285,-86.9715
1,Alabama,AL,35023,Jefferson,Hueytown,33.46783,-87.0882
1,Alabama,AL,35031,Blount,Blountsville,34.09751,-86.555
1,Alabama,AL,35033,Cullman,Bremen,33.92648,-87.0318
1,Alabama,AL,35034,Bibb,Brent,32.91112,-87.2717
1,Alabama,AL,35035,Bibb,Brierfield,33.04368,-86.9684
1,Alabama,AL,35036,Jefferson,Brookside,33.64392,-86.9196
1,Alabama,AL,35040,Shelby,Calera,33.10297,-86.7289
1,Alabama,AL,35042,Bibb,Centreville,32.95799,-87.1038
1,Alabama,AL,35043,Shelby,Chelsea,33.31484,-86.6599
1,Alabama,AL,35044,Talladega,Coosa pines,33.24398,-86.3808
1,Alabama,AL,35045,Chilton,Clanton,32.79996,-86.6768
1,Alabama,AL,35046,Chilton,Zcta 35046,32.93114,-86.5342
1,Alabama,AL,35049,Blount,Cleveland,33.96181,-86.6121
1,Alabama,AL,35051,Shelby,Columbiana,33.20503,-86.6189
1,Alabama,AL,35052,St. Clair,Cook springs,33.59068,-86.4099
1,Alabama,AL,35053,Cullman,Crane hill,34.05416,-87.0737
1,Alabama,AL,35054,St. Clair,Cropwell,33.50202,-86.3379
1,Alabama,AL,35055,Cullman,Cullman,34.15112,-86.7588
1,Alabama,AL,35057,Cullman,Cullman,34.18046,-86.9343
1,Alabama,AL,35058,Cullman,Zcta 35058,34.22886,-86.7373
1,Alabama,AL,35060,Jefferson,Docena,33.55775,-86.9517
1,Alabama,AL,35061,Jefferson,Dolomite,33.47201,-86.9559
1,Alabama,AL,35062,Jefferson,Dora,33.72492,-87.0103
1,Alabama,AL,35063,Walker,Empire,33.81827,-87.0206
1,Alabama,AL,35064,Jefferson,Fairfield,33.47607,-86.9203
1,Alabama,AL,35068,Jefferson,Coalburg,33.60752,-86.8311
1,Alabama,AL,35070,Cullman,Garden city,34.00928,-86.7579
1,Alabama,AL,35071,Jefferson,Gardendale,33.69498,-86.8481
1,Alabama,AL,35072,Coosa,Goodwater,33.0935,-86.0669
1,Alabama,AL,35073,Jefferson,Alden,33.65123,-86.9868
1,Alabama,AL,35074,Bibb,Green pond,33.22235,-87.1243
1,Alabama,AL,35077,Cullman,Hanceville,34.02117,-86.8327
1,Alabama,AL,35078,Shelby,Harpersville,33.32442,-86.445
1,Alabama,AL,35079,Blount,Hayden,33.93788,-86.7583
1,Alabama,AL,35080,Shelby,Helena,33.26008,-86.9115
1,Alabama,AL,35082,Clay,Hollins,33.15802,-86.1539
1,Alabama,AL,35083,Cullman,Holly pond,34.19987,-86.5992
1,Alabama,AL,35085,Chilton,Jemison,32.9765,-86.7392
1,Alabama,AL,35087,Cullman,Joppa,34.30645,-86.5843
1,Alabama,AL,35089,Coosa,Kellyton,32.94578,-86.0818
1,Alabama,AL,35091,Jefferson,Kimberly,33.77924,-86.7896
1,Alabama,AL,35094,Jefferson,Leeds,33.53007,-86.5533
1,Alabama,AL,35096,Talladega,Lincoln,33.62034,-86.1077
1,Alabama,AL,35097,Blount,Locust fork,33.89219,-86.6271
1,Alabama,AL,35098,Cullman,Logan,34.1211,-87.0469
1,Alabama,AL,350HH,Chilton,Zcta 350hh,#N/A,#N/A
1,Alabama,AL,350XX,Coosa,Zcta 350xx,#N/A,#N/A
1,Alabama,AL,35111,Tuscaloosa,Mc calla,33.28435,-87.0949
1,Alabama,AL,35112,St. Clair,Margaret,33.69108,-86.4706
1,Alabama,AL,35114,Shelby,Maylene,33.22441,-86.8793
1,Alabama,AL,35115,Shelby,Montevallo,33.14247,-86.8915
1,Alabama,AL,35116,Jefferson,Morris,33.73129,-86.7699
1,Alabama,AL,35117,Jefferson,Mount olive,33.66778,-86.8926
1,Alabama,AL,35118,Jefferson,Sylvan springs,33.52742,-87.0347
1,Alabama,AL,35119,Jefferson,New castle,33.64657,-86.7709
1,Alabama,AL,35120,St. Clair,Odenville,33.66681,-86.4238
1,Alabama,AL,35121,Blount,Oneonta,33.94119,-86.4551
1,Alabama,AL,35124,Shelby,Indian springs,33.32183,-86.7422
1,Alabama,AL,35125,St. Clair,Pell city,33.63338,-86.2887
1,Alabama,AL,35126,Jefferson,Dixiana,33.73077,-86.6551
1,Alabama,AL,35127,Jefferson,Pleasant grove,33.49166,-86.9764
1,Alabama,AL,35128,St. Clair,Zcta 35128,33.5524,-86.3378
1,Alabama,AL,35130,Walker,Quinton,33.63316,-87.1367
1,Alabama,AL,35131,St. Clair,Ragland,33.72743,-86.1968
1,Alabama,AL,35133,Blount,Remlap,33.82965,-86.5962
1,Alabama,AL,35135,St. Clair,Riverside,33.61646,-86.1996
1,Alabama,AL,35136,Coosa,Rockford,32.87925,-86.2868
1,Alabama,AL,35139,Jefferson,Sayre,33.71413,-86.974
1,Alabama,AL,35143,Shelby,Shelby,33.10084,-86.543
1,Alabama,AL,35146,St. Clair,Springville,33.79507,-86.4533
1,Alabama,AL,35147,Shelby,Sterrett,33.41588,-86.531
1,Alabama,AL,35148,Walker,Sumiton,33.75596,-87.0458
1,Alabama,AL,35149,Talladega,Sycamore,33.24987,-86.1873
1,Alabama,AL,35150,Talladega,Sylacauga,33.18931,-86.2384
1,Alabama,AL,35151,Talladega,Zcta 35151,33.08134,-86.3922
1,Alabama,AL,35160,Talladega,Talladega,33.35666,-86.0523
1,Alabama,AL,35171,Chilton,Thorsby,32.88254,-86.7403
1,Alabama,AL,35172,Blount,Trafford,33.84516,-86.6953
1,Alabama,AL,35173,Jefferson,Trussville,33.65541,-86.5631
1,Alabama,AL,35175,Marshall,Union grove,34.43568,-86.5114
1,Alabama,AL,35176,Shelby,Vandiver,33.48538,-86.498
1,Alabama,AL,35178,Shelby,Vincent,33.41977,-86.3984
1,Alabama,AL,35179,Cullman,Vinemont,34.27331,-86.969
1,Alabama,AL,35180,Jefferson,Warrior,33.82031,-86.8403
1,Alabama,AL,35183,Coosa,Weogufka,33.01611,-86.352
1,Alabama,AL,35184,Bibb,West blocton,33.11435,-87.1367
1,Alabama,AL,35186,Shelby,Wilsonville,33.25673,-86.5103
1,Alabama,AL,35188,Bibb,Woodstock,33.18034,-87.1636
1,Alabama,AL,351HH,Blount,Zcta 351hh,#N/A,#N/A
1,Alabama,AL,351XX,Coosa,Zcta 351xx,#N/A,#N/A
1,Alabama,AL,35203,Jefferson,Birmingham,33.5186,-86.8098
1,Alabama,AL,35204,Jefferson,Birmingham,33.52211,-86.8398
1,Alabama,AL,35205,Jefferson,Birmingham,33.495,-86.8081
1,Alabama,AL,35206,Jefferson,Birmingham,33.56991,-86.713
1,Alabama,AL,35207,Jefferson,Birmingham,33.56493,-86.8236
1,Alabama,AL,35208,Jefferson,Birmingham,33.49682,-86.8793
1,Alabama,AL,35209,Jefferson,Homewood,33.46635,-86.8115
1,Alabama,AL,35210,Jefferson,Irondale,33.54156,-86.6695
1,Alabama,AL,35211,Jefferson,Birmingham,33.45509,-86.8565
1,Alabama,AL,35212,Jefferson,Birmingham,33.54739,-86.7529
1,Alabama,AL,35213,Jefferson,Crestline height,33.50667,-86.7445
1,Alabama,AL,35214,Jefferson,Birmingham,33.57684,-86.8935
1,Alabama,AL,35215,Jefferson,Center point,33.649,-86.7074
1,Alabama,AL,35216,Jefferson,Vestavia hills,33.41925,-86.7894
1,Alabama,AL,35217,Jefferson,Birmingham,33.60788,-86.7603
1,Alabama,AL,35218,Jefferson,Birmingham,33.50767,-86.894
1,Alabama,AL,35221,Jefferson,Birmingham,33.44949,-86.899
1,Alabama,AL,35222,Jefferson,Birmingham,33.52371,-86.7701
1,Alabama,AL,35223,Jefferson,Mountain brook,33.48814,-86.7348
1,Alabama,AL,35224,Jefferson,Birmingham,33.51729,-86.9438
1,Alabama,AL,35226,Jefferson,Bluff park,33.39915,-86.8459
1,Alabama,AL,35228,Jefferson,Midfield,33.4561,-86.921
1,Alabama,AL,35233,Jefferson,Birmingham,33.50875,-86.802
1,Alabama,AL,35234,Jefferson,Birmingham,33.54081,-86.8028
1,Alabama,AL,35235,Jefferson,Center point,33.62449,-86.6479
1,Alabama,AL,35242,Shelby,Shoal creek,33.42525,-86.6721
1,Alabama,AL,35243,Jefferson,Cahaba heights,33.44092,-86.7415
1,Alabama,AL,35244,Jefferson,Hoover,33.35292,-86.8253
1,Alabama,AL,352HH,Jefferson,Zcta 352hh,#N/A,#N/A
1,Alabama,AL,35401,Tuscaloosa,Tuscaloosa,33.17024,-87.6162
1,Alabama,AL,35403,Tuscaloosa,Tuscaloosa,#N/A,#N/A
1,Alabama,AL,35404,Tuscaloosa,Holt,33.21516,-87.4834
1,Alabama,AL,35405,Tuscaloosa,Tuscaloosa,33.12061,-87.5389
1,Alabama,AL,35406,Tuscaloosa,Tuscaloosa,33.33887,-87.4693
1,Alabama,AL,35441,Hale,Stewart,32.85276,-87.7503
1,Alabama,AL,35442,Pickens,Aliceville,33.07721,-88.2027
1,Alabama,AL,35443,Greene,Boligee,32.75528,-88.0008
1,Alabama,AL,35444,Tuscaloosa,Brookwood,33.32873,-87.2929
1,Alabama,AL,35446,Tuscaloosa,Buhl,33.2078,-87.751
1,Alabama,AL,35447,Pickens,Carrollton,33.25187,-88.1578
1,Alabama,AL,35452,Tuscaloosa,Coker,33.27819,-87.6807
1,Alabama,AL,35453,Tuscaloosa,Cottondale,33.16378,-87.3895
1,Alabama,AL,35456,Tuscaloosa,Duncanville,33.0637,-87.4148
1,Alabama,AL,35457,Tuscaloosa,Echola,33.30414,-87.7731
1,Alabama,AL,35458,Tuscaloosa,Elrod,33.41061,-87.8066
1,Alabama,AL,35459,Sumter,Emelle,32.79164,-88.2759
1,Alabama,AL,35460,Sumter,Epes,32.71316,-88.1537
1,Alabama,AL,35461,Pickens,Ethelsville,33.41737,-88.2136
1,Alabama,AL,35462,Greene,Eutaw,32.92047,-87.9675
1,Alabama,AL,35463,Tuscaloosa,Fosters,33.06473,-87.6825
1,Alabama,AL,35464,Sumter,Gainesville,32.80613,-88.1546
1,Alabama,AL,35466,Pickens,Gordo,33.24853,-87.9195
1,Alabama,AL,35469,Greene,Knoxville,32.97387,-87.7816
1,Alabama,AL,35470,Sumter,Coatopa,32.56197,-88.0663
1,Alabama,AL,35471,Pickens,Mc shan,#N/A,#N/A
1,Alabama,AL,35473,Tuscaloosa,Zcta 35473,33.27052,-87.5816
1,Alabama,AL,35474,Hale,Cypress,32.94057,-87.5912
1,Alabama,AL,35475,Tuscaloosa,Zcta 35475,33.43438,-87.594
1,Alabama,AL,35476,Tuscaloosa,Northport,33.22747,-87.5913
1,Alabama,AL,35477,Sumter,Panola,32.95614,-88.241
1,Alabama,AL,35480,Tuscaloosa,Ralph,33.07804,-87.8192
1,Alabama,AL,35481,Pickens,Reform,33.39462,-88.0374
1,Alabama,AL,35490,Tuscaloosa,Vance,33.21842,-87.2382
1,Alabama,AL,354HH,Greene,Zcta 354hh,#N/A,#N/A
1,Alabama,AL,354XX,Sumter,Zcta 354xx,#N/A,#N/A
1,Alabama,AL,35501,Walker,Jasper,33.81891,-87.2927
1,Alabama,AL,35503,Walker,Zcta 35503,33.93648,-87.3051
1,Alabama,AL,35504,Walker,Zcta 35504,33.89414,-87.1708
1,Alabama,AL,35540,Winston,Addison,34.23469,-87.2097
1,Alabama,AL,35541,Winston,Arley,34.08133,-87.1743
1,Alabama,AL,35542,Fayette,Bankston,33.71901,-87.676
1,Alabama,AL,35543,Marion,Bear creek,34.21116,-87.7584
1,Alabama,AL,35544,Lamar,Beaverton,33.95999,-88.0171
1,Alabama,AL,35545,Fayette,Belk,33.65155,-87.9349
1,Alabama,AL,35546,Fayette,Berry,33.61943,-87.5427
1,Alabama,AL,35548,Marion,Brilliant,34.05642,-87.7505
1,Alabama,AL,35549,Walker,Carbon hill,33.85134,-87.5449
1,Alabama,AL,35550,Walker,Cordova,33.74543,-87.1605
1,Alabama,AL,35552,Lamar,Detroit,34.07228,-88.1422
1,Alabama,AL,35553,Winston,Double springs,34.12688,-87.3831
1,Alabama,AL,35554,Fayette,Eldridge,33.88573,-87.6717
1,Alabama,AL,35555,Fayette,Fayette,33.65851,-87.8156
1,Alabama,AL,35559,Fayette,Glen allen,33.90549,-87.7281
1,Alabama,AL,35563,Marion,Guin,33.97761,-87.9037
1,Alabama,AL,35564,Marion,Hackleburg,34.25883,-87.8453
1,Alabama,AL,35565,Winston,Haleyville,34.23696,-87.5634
1,Alabama,AL,35570,Marion,Hamilton,34.16375,-87.9932
1,Alabama,AL,35571,Franklin,Hodges,34.36871,-87.9441
1,Alabama,AL,35572,Winston,Houston,34.20127,-87.2826
1,Alabama,AL,35574,Lamar,Kennedy,33.56758,-87.95
1,Alabama,AL,35575,Winston,Lynn,34.03618,-87.5882
1,Alabama,AL,35576,Lamar,Millport,33.57538,-88.1439
1,Alabama,AL,35578,Walker,Nauvoo,33.98048,-87.4664
1,Alabama,AL,35579,Walker,Oakman,33.63627,-87.3603
1,Alabama,AL,35580,Walker,Parrish,33.67329,-87.2555
1,Alabama,AL,35581,Franklin,Phil campbell,34.35991,-87.7131
1,Alabama,AL,35582,Franklin,Red bay,34.4868,-88.1129
1,Alabama,AL,35584,Walker,Sipsey,33.81937,-87.088
1,Alabama,AL,35585,Franklin,Spruce pine,34.42084,-87.8325
1,Alabama,AL,35586,Lamar,Sulligent,33.87791,-88.1341
1,Alabama,AL,35587,Walker,Townley,33.79554,-87.4569
1,Alabama,AL,35592,Lamar,Vernon,33.7461,-88.0848
1,Alabama,AL,35593,Franklin,Vina,34.3391,-88.0956
1,Alabama,AL,35594,Marion,Winfield,33.93269,-87.7744
1,Alabama,AL,355HH,Franklin,Zcta 355hh,#N/A,#N/A
1,Alabama,AL,355XX,Lawrence,Zcta 355xx,#N/A,#N/A
1,Alabama,AL,35601,Morgan,Decatur,34.60802,-87.0111
1,Alabama,AL,35603,Morgan,Decatur,34.53545,-86.9712
1,Alabama,AL,35610,Lauderdale,Anderson,34.95446,-87.246
1,Alabama,AL,35611,Limestone,Athens,34.77383,-87.0841
1,Alabama,AL,35613,Limestone,Zcta 35613,34.82016,-86.8824
1,Alabama,AL,35614,Limestone,Zcta 35614,34.85372,-86.9901
1,Alabama,AL,35616,Colbert,Cherokee,34.7395,-88.0194
1,Alabama,AL,35618,Lawrence,Courtland,34.6414,-87.305
1,Alabama,AL,35619,Morgan,Danville,34.38272,-87.1521
1,Alabama,AL,35620,Limestone,Elkmont,34.93081,-87.0202
1,Alabama,AL,35621,Morgan,Eva,34.34897,-86.7295
1,Alabama,AL,35622,Morgan,Falkville,34.34659,-86.899
1,Alabama,AL,35630,Lauderdale,Florence,34.82298,-87.6617
1,Alabama,AL,35633,Lauderdale,Florence,34.8751,-87.7984
1,Alabama,AL,35634,Lauderdale,Zcta 35634,34.91927,-87.6145
1,Alabama,AL,35640,Morgan,Hartselle,34.4407,-86.9437
1,Alabama,AL,35643,Lawrence,Hillsboro,34.67258,-87.2019
1,Alabama,AL,35645,Lauderdale,Killen,34.90305,-87.501
1,Alabama,AL,35646,Colbert,Leighton,34.6771,-87.5233
1,Alabama,AL,35647,Limestone,Lester,34.96766,-87.117
1,Alabama,AL,35648,Lauderdale,Lexington,34.95866,-87.3878
1,Alabama,AL,35649,Limestone,Mooresville,34.61762,-86.8693
1,Alabama,AL,35650,Lawrence,Moulton,34.44723,-87.3086
1,Alabama,AL,35651,Lawrence,Mount hope,34.46986,-87.4957
1,Alabama,AL,35652,Lauderdale,Rogersville,34.84674,-87.3102
1,Alabama,AL,35653,Franklin,Russellville,34.51819,-87.872
1,Alabama,AL,35654,Franklin,Zcta 35654,34.49779,-87.6323
1,Alabama,AL,35660,Colbert,Sheffield,34.75549,-87.7013
1,Alabama,AL,35661,Colbert,Muscle shoals,34.76853,-87.5628
1,Alabama,AL,35670,Morgan,Somerville,34.45518,-86.7293
1,Alabama,AL,35671,Limestone,Tanner,34.68354,-86.9351
1,Alabama,AL,35672,Lawrence,Town creek,34.64853,-87.4065
1,Alabama,AL,35673,Lawrence,Trinity,34.57634,-87.1373
1,Alabama,AL,35674,Colbert,Tuscumbia,34.66241,-87.7819
1,Alabama,AL,35677,Lauderdale,Waterloo,34.95571,-88.0266
1,Alabama,AL,356HH,Colbert,Zcta 356hh,#N/A,#N/A
1,Alabama,AL,356XX,Lawrence,Zcta 356xx,#N/A,#N/A
1,Alabama,AL,35739,Limestone,Ardmore,34.96859,-86.791
1,Alabama,AL,35740,Jackson,Bridgeport,34.96529,-85.7774
1,Alabama,AL,35741,Madison,Brownsboro,34.71802,-86.479
1,Alabama,AL,35742,Limestone,Capshaw,#N/A,#N/A
1,Alabama,AL,35744,Jackson,Dutton,34.61053,-85.9091
1,Alabama,AL,35745,Jackson,Estillfork,34.94342,-86.1802
1,Alabama,AL,35746,Jackson,Fackler,34.82862,-86.006
1,Alabama,AL,35747,Marshall,Grant,34.49494,-86.299
1,Alabama,AL,35748,Madison,Gurley,34.72108,-86.3894
1,Alabama,AL,35749,Madison,Harvest,34.82224,-86.7578
1,Alabama,AL,35750,Madison,Hazel green,34.95618,-86.5895
1,Alabama,AL,35751,Jackson,Hollytree,34.81116,-86.2765
1,Alabama,AL,35752,Jackson,Hollywood,34.7459,-85.946
1,Alabama,AL,35754,Morgan,Laceys spring,34.52549,-86.6045
1,Alabama,AL,35755,Marshall,Langston,34.48877,-86.1501
1,Alabama,AL,35756,Limestone,Zcta 35756,34.6437,-86.8182
1,Alabama,AL,35757,Madison,Zcta 35757,34.78422,-86.7453
1,Alabama,AL,35758,Madison,Triana,34.71142,-86.7465
1,Alabama,AL,35759,Madison,Meridianville,34.86826,-86.5458
1,Alabama,AL,35760,Madison,New hope,34.54391,-86.3839
1,Alabama,AL,35761,Madison,New market,34.91621,-86.4092
1,Alabama,AL,35763,Madison,Big cove,34.62205,-86.4618
1,Alabama,AL,35764,Jackson,Paint rock,34.7263,-86.3102
1,Alabama,AL,35765,Jackson,Pisgah,34.69031,-85.8141
1,Alabama,AL,35766,Jackson,Princeton,34.86749,-86.2999
1,Alabama,AL,35768,Jackson,Hytop,34.76889,-86.1042
1,Alabama,AL,35769,Jackson,Zcta 35769,34.59798,-86.1048
1,Alabama,AL,35771,Jackson,Section,34.5386,-86.0054
1,Alabama,AL,35772,Jackson,Stevenson,34.93715,-85.9485
1,Alabama,AL,35773,Madison,Toney,34.89107,-86.7079
1,Alabama,AL,35774,Jackson,Trenton,34.76525,-86.2265
1,Alabama,AL,35775,Morgan,Valhermoso sprin,34.54293,-86.706
1,Alabama,AL,35776,Jackson,Woodville,34.6594,-86.2394
1,Alabama,AL,357HH,Jackson,Zcta 357hh,#N/A,#N/A
1,Alabama,AL,357XX,Madison,Zcta 357xx,#N/A,#N/A
1,Alabama,AL,35801,Madison,Huntsville,34.72527,-86.5609
1,Alabama,AL,35802,Madison,Huntsville,34.66821,-86.5589
1,Alabama,AL,35803,Madison,Huntsville,34.56346,-86.5194
1,Alabama,AL,35805,Madison,Huntsville,34.70937,-86.6203
1,Alabama,AL,35806,Madison,Huntsville,34.76077,-86.6858
1,Alabama,AL,35808,Madison,Huntsville,34.63303,-86.6591
1,Alabama,AL,35810,Madison,Huntsville,34.80319,-86.6014
1,Alabama,AL,35811,Madison,Huntsville,34.79535,-86.5099
1,Alabama,AL,35816,Madison,Huntsville,34.73995,-86.6308
1,Alabama,AL,35824,Madison,Huntsville,34.64491,-86.7521
1,Alabama,AL,358HH,Madison,Zcta 358hh,#N/A,#N/A
1,Alabama,AL,358XX,Madison,Zcta 358xx,#N/A,#N/A
1,Alabama,AL,35901,Etowah,Southside,34.04938,-85.9343
1,Alabama,AL,35903,Etowah,Hokes bluff,34.02427,-85.8637
1,Alabama,AL,35904,Etowah,Gadsden,34.07056,-85.9901
1,Alabama,AL,35905,Etowah,Glencoe,33.9614,-85.9224
1,Alabama,AL,35906,Etowah,Rainbow city,33.92715,-86.0951
1,Alabama,AL,35907,Etowah,Zcta 35907,33.89084,-86.018
1,Alabama,AL,35950,Marshall,Albertville,34.24975,-86.2611
1,Alabama,AL,35951,Marshall,Zcta 35951,34.3391,-86.1623
1,Alabama,AL,35952,Etowah,Snead,34.05239,-86.3107
1,Alabama,AL,35953,St. Clair,Ashville,33.80962,-86.2297
1,Alabama,AL,35954,Etowah,Attalla,34.08975,-86.0574
1,Alabama,AL,35956,Etowah,Zcta 35956,34.14615,-86.1467
1,Alabama,AL,35957,Marshall,Boaz,34.19616,-86.1969
1,Alabama,AL,35958,Jackson,Bryant,34.91601,-85.646
1,Alabama,AL,35959,Cherokee,Cedar bluff,34.24238,-85.608
1,Alabama,AL,35960,Cherokee,Centre,34.12433,-85.5706
1,Alabama,AL,35961,DeKalb,Collinsville,34.30395,-85.8462
1,Alabama,AL,35962,DeKalb,Crossville,34.30388,-86.0364
1,Alabama,AL,35963,DeKalb,Dawson,34.35979,-85.9272
1,Alabama,AL,35966,Jackson,Flat rock,34.78698,-85.6742
1,Alabama,AL,35967,DeKalb,Fort payne,34.40766,-85.6946
1,Alabama,AL,35968,DeKalb,Zcta 35968,34.5511,-85.7389
1,Alabama,AL,35971,DeKalb,Fyffe,34.45549,-85.9451
1,Alabama,AL,35972,Etowah,Gallant,33.994,-86.2469
1,Alabama,AL,35973,Cherokee,Gaylesville,34.34402,-85.5515
1,Alabama,AL,35974,DeKalb,Geraldine,34.36275,-86.0103
1,Alabama,AL,35975,DeKalb,Groveoak,34.43646,-86.0604
1,Alabama,AL,35976,Marshall,Guntersville,34.34577,-86.33
1,Alabama,AL,35978,DeKalb,Henagar,34.6428,-85.729
1,Alabama,AL,35979,DeKalb,Higdon,34.83232,-85.6096
1,Alabama,AL,35980,Marshall,Horton,34.17209,-86.3896
1,Alabama,AL,35981,DeKalb,Ider,34.72235,-85.6488
1,Alabama,AL,35983,Cherokee,Leesburg,34.17291,-85.7663
1,Alabama,AL,35984,DeKalb,Mentone,34.53684,-85.5639
1,Alabama,AL,35986,DeKalb,Rainsville,34.50034,-85.8359
1,Alabama,AL,35987,St. Clair,Steele,33.91337,-86.2422
1,Alabama,AL,35988,DeKalb,Sylvania,34.55766,-85.7965
1,Alabama,AL,35989,DeKalb,Valley head,34.61354,-85.6199
1,Alabama,AL,35990,Etowah,Walnut grove,34.06778,-86.3047
1,Alabama,AL,359HH,Cherokee,Zcta 359hh,#N/A,#N/A
1,Alabama,AL,36003,Autauga,Autaugaville,32.4519,-86.7238
1,Alabama,AL,36005,Pike,Banks,31.88821,-85.7196
1,Alabama,AL,36006,Autauga,Billingsley,32.64656,-86.7221
1,Alabama,AL,36009,Crenshaw,Brantley,31.59478,-86.3014
1,Alabama,AL,36010,Pike,Brundidge,31.65978,-85.7984
1,Alabama,AL,36013,Montgomery,Cecil,32.28467,-85.9852
1,Alabama,AL,36016,Barbour,Clayton,31.85022,-85.4147
1,Alabama,AL,36017,Barbour,Clio,31.67944,-85.5577
1,Alabama,AL,36020,Elmore,Coosada,32.47937,-86.323
1,Alabama,AL,36022,Elmore,Deatsville,32.6235,-86.4056
1,Alabama,AL,36024,Elmore,Eclectic,32.6718,-86.025
1,Alabama,AL,36025,Elmore,Elmore,32.54446,-86.325
1,Alabama,AL,36026,Coosa,Equality,32.77548,-86.131
1,Alabama,AL,36027,Barbour,Eufaula,32.06064,-85.1166
1,Alabama,AL,36028,Covington,Dozier,31.49547,-86.3928
1,Alabama,AL,36029,Bullock,Fitzpatrick,32.18187,-85.9332
1,Alabama,AL,36030,Butler,Forest home,31.87091,-86.8762
1,Alabama,AL,36031,Macon,Fort davis,32.24557,-85.7341
1,Alabama,AL,36032,Lowndes,Fort deposit,31.99463,-86.5686
1,Alabama,AL,36033,Butler,Georgiana,31.67171,-86.7706
1,Alabama,AL,36034,Pike,Glenwood,31.62105,-86.1112
1,Alabama,AL,36035,Pike,Goshen,31.78871,-86.1262
1,Alabama,AL,36036,Montgomery,Grady,31.97394,-86.1617
1,Alabama,AL,36037,Butler,Greenville,31.79901,-86.6286
1,Alabama,AL,36039,Macon,Hardaway,32.29895,-85.8376
1,Alabama,AL,36040,Lowndes,Hayneville,32.17392,-86.6842
1,Alabama,AL,36041,Crenshaw,Highland home,31.9138,-86.32
1,Alabama,AL,36042,Crenshaw,Honoraville,31.86862,-86.46
1,Alabama,AL,36043,Montgomery,Hope hull,32.20115,-86.4207
1,Alabama,AL,36046,Crenshaw,Lapine,32.02361,-86.3334
1,Alabama,AL,36047,Lowndes,Letohatchee,32.07525,-86.5179
1,Alabama,AL,36048,Barbour,Louisville,31.80421,-85.592
1,Alabama,AL,36049,Crenshaw,Luverne,31.76814,-86.2773
1,Alabama,AL,36051,Autauga,Marbury,32.68546,-86.5
1,Alabama,AL,36052,Montgomery,Mathews,32.18409,-86.0483
1,Alabama,AL,36053,Bullock,Midway,32.02924,-85.4436
1,Alabama,AL,36054,Elmore,Millbrook,32.48188,-86.3663
1,Alabama,AL,36064,Montgomery,Pike road,32.29664,-86.0779
1,Alabama,AL,36065,Montgomery,Pine level,#N/A,#N/A
1,Alabama,AL,36066,Autauga,Prattville,32.47968,-86.424
1,Alabama,AL,36067,Autauga,Prattville,32.51652,-86.5615
1,Alabama,AL,36069,Montgomery,Ramer,32.09414,-86.1499
1,Alabama,AL,36071,Crenshaw,Rutledge,31.70669,-86.3978
1,Alabama,AL,36075,Macon,Shorter,32.37839,-85.9237
1,Alabama,AL,36078,Elmore,Tallassee,32.54698,-85.9427
1,Alabama,AL,36079,Pike,Zcta 36079,31.76671,-85.998
1,Alabama,AL,36080,Elmore,Titus,32.71181,-86.284
1,Alabama,AL,36081,Pike,Troy,31.90375,-85.8982
1,Alabama,AL,36083,Macon,Tuskegee,32.38673,-85.6844
1,Alabama,AL,36088,Macon,Tuskegee institu,32.41528,-85.7203
1,Alabama,AL,36089,Bullock,Union springs,32.15105,-85.6986
1,Alabama,AL,36091,Chilton,Verbena,32.75045,-86.5085
1,Alabama,AL,36092,Elmore,Wetumpka,32.61766,-86.2005
1,Alabama,AL,36093,Elmore,Zcta 36093,32.49456,-86.1336
1,Alabama,AL,360HH,Autauga,Zcta 360hh,#N/A,#N/A
1,Alabama,AL,360XX,Butler,Zcta 360xx,#N/A,#N/A
1,Alabama,AL,36104,Montgomery,Montgomery,32.40325,-86.3269
1,Alabama,AL,36105,Montgomery,Montgomery,32.2097,-86.2887
1,Alabama,AL,36106,Montgomery,Montgomery,32.35282,-86.2576
1,Alabama,AL,36107,Montgomery,Montgomery,32.38369,-86.2793
1,Alabama,AL,36108,Montgomery,Montgomery,32.3391,-86.4011
1,Alabama,AL,36109,Montgomery,Montgomery,32.38896,-86.2421
1,Alabama,AL,36110,Montgomery,Montgomery,32.44658,-86.2558
1,Alabama,AL,36111,Montgomery,Montgomery,32.33658,-86.2713
1,Alabama,AL,36113,Montgomery,Maxwell a f b,32.38106,-86.3635
1,Alabama,AL,36115,Montgomery,Gunter afs,32.40677,-86.2467
1,Alabama,AL,36116,Montgomery,Montgomery,32.27359,-86.2145
1,Alabama,AL,36117,Montgomery,Montgomery,32.37873,-86.145
1,Alabama,AL,361HH,Montgomery,Zcta 361hh,#N/A,#N/A
1,Alabama,AL,36201,Calhoun,Anniston,33.64916,-85.8796
1,Alabama,AL,36203,Calhoun,Oxford,33.58308,-85.8346
1,Alabama,AL,36205,Calhoun,Fort mc clellan,33.71738,-85.7948
1,Alabama,AL,36206,Calhoun,Anniston,33.73327,-85.8096
1,Alabama,AL,36207,Calhoun,Zcta 36207,33.68032,-85.7095
1,Alabama,AL,36250,Calhoun,Alexandria,33.76532,-85.9011
1,Alabama,AL,36251,Clay,Ashland,33.22228,-85.8724
1,Alabama,AL,36255,Clay,Cragford,33.16815,-85.7304
1,Alabama,AL,36256,Tallapoosa,Daviston,33.04631,-85.7048
1,Alabama,AL,36258,Clay,Delta,33.47773,-85.7173
1,Alabama,AL,36260,Calhoun,Eastaboga,33.58176,-85.9955
1,Alabama,AL,36262,Cleburne,Fruithurst,33.80624,-85.4798
1,Alabama,AL,36263,Randolph,Graham,33.46623,-85.3593
1,Alabama,AL,36264,Cleburne,Heflin,33.59678,-85.5515
1,Alabama,AL,36265,Calhoun,Jacksonville,33.84766,-85.7849
1,Alabama,AL,36266,Clay,Lineville,33.34985,-85.7343
1,Alabama,AL,36267,Clay,Millerville,33.19737,-85.9483
1,Alabama,AL,36268,Talladega,Munford,33.4948,-85.9295
1,Alabama,AL,36269,Cleburne,Muscadine,33.7398,-85.3839
1,Alabama,AL,36270,Randolph,Newell,#N/A,#N/A
1,Alabama,AL,36271,Calhoun,Ohatchee,33.78123,-86.0187
1,Alabama,AL,36272,Calhoun,Piedmont,33.94238,-85.5954
1,Alabama,AL,36273,Cleburne,Ranburne,33.54503,-85.378
1,Alabama,AL,36274,Randolph,Rock mills,33.17241,-85.3631
1,Alabama,AL,36276,Randolph,Wadley,33.13268,-85.5703
1,Alabama,AL,36277,Calhoun,Weaver,33.75747,-85.8182
1,Alabama,AL,36278,Randolph,Wedowee,33.33243,-85.5236
1,Alabama,AL,36279,Calhoun,Wellington,33.87227,-85.8893
1,Alabama,AL,36280,Randolph,Woodland,33.37632,-85.3883
1,Alabama,AL,362HH,Calhoun,Zcta 362hh,#N/A,#N/A
1,Alabama,AL,362XX,Calhoun,Zcta 362xx,#N/A,#N/A
1,Alabama,AL,36301,Houston,Taylor,31.14007,-85.3983
1,Alabama,AL,36303,Houston,Napier field,31.26657,-85.4013
1,Alabama,AL,36305,Houston,Zcta 36305,31.20457,-85.496
1,Alabama,AL,36310,Henry,Abbeville,31.59515,-85.2089
1,Alabama,AL,36311,Dale,Ariton,31.60978,-85.6857
1,Alabama,AL,36312,Houston,Ashford,31.17083,-85.2368
1,Alabama,AL,36313,Geneva,Bellwood,31.17855,-85.7939
1,Alabama,AL,36314,Geneva,Black,31.01894,-85.7728
1,Alabama,AL,36316,Geneva,Chancellor,31.17569,-85.864
1,Alabama,AL,36317,Henry,Clopton,31.64356,-85.4043
1,Alabama,AL,36318,Geneva,Coffee springs,31.16952,-85.9505
1,Alabama,AL,36319,Houston,Columbia,31.33194,-85.1489
1,Alabama,AL,36320,Houston,Cottonwood,31.04993,-85.3192
1,Alabama,AL,36322,Dale,Daleville,31.25761,-85.7358
1,Alabama,AL,36323,Coffee,Elba,31.4281,-86.0725
1,Alabama,AL,36330,Coffee,Enterprise,31.30593,-85.8641
1,Alabama,AL,36340,Geneva,Geneva,31.05167,-85.8909
1,Alabama,AL,36343,Houston,Gordon,31.0607,-85.1208
1,Alabama,AL,36344,Geneva,Hartford,31.09789,-85.7081
1,Alabama,AL,36345,Henry,Headland,31.36631,-85.3104
1,Alabama,AL,36346,Coffee,Jack,31.56057,-85.9301
1,Alabama,AL,36350,Dale,Midland city,31.35021,-85.4955
1,Alabama,AL,36351,Coffee,New brockton,31.4255,-85.9066
1,Alabama,AL,36352,Houston,Newton,31.265,-85.6097
1,Alabama,AL,36353,Henry,Newville,31.47853,-85.3486
1,Alabama,AL,36360,Dale,Ozark,31.46747,-85.617
1,Alabama,AL,36362,Dale,Fort rucker,31.35093,-85.6798
1,Alabama,AL,36370,Houston,Pansey,31.14222,-85.1581
1,Alabama,AL,36371,Dale,Pinckard,31.31242,-85.552
1,Alabama,AL,36373,Henry,Shorterville,31.54159,-85.0974
1,Alabama,AL,36374,Dale,Skipperville,31.57874,-85.4937
1,Alabama,AL,36375,Geneva,Slocomb,31.07122,-85.545
1,Alabama,AL,36376,Houston,Webb,31.25114,-85.2698
1,Alabama,AL,363HH,Geneva,Zcta 363hh,#N/A,#N/A
1,Alabama,AL,36401,Conecuh,Evergreen,31.48065,-86.9407
1,Alabama,AL,36420,Covington,Andalusia,31.1724,-86.5651
1,Alabama,AL,36425,Monroe,Beatrice,31.76474,-87.1952
1,Alabama,AL,36426,Escambia,East brewton,31.14098,-87.0711
1,Alabama,AL,36432,Conecuh,Castleberry,31.29398,-87.0303
1,Alabama,AL,36435,Wilcox,Coy,31.86969,-87.4516
1,Alabama,AL,36436,Clarke,Dickinson,31.78537,-87.6495
1,Alabama,AL,36441,Escambia,Flomaton,31.03936,-87.2551
1,Alabama,AL,36442,Covington,Florala,31.07332,-86.3593
1,Alabama,AL,36444,Monroe,Franklin,31.6763,-87.441
1,Alabama,AL,36445,Monroe,Frisco city,31.44459,-87.4534
1,Alabama,AL,36446,Clarke,Fulton,31.79246,-87.72
1,Alabama,AL,36451,Clarke,Grove hill,31.70052,-87.8036
1,Alabama,AL,36453,Coffee,Kinston,31.19168,-86.1492
1,Alabama,AL,36455,Covington,Lockhart,31.0131,-86.352
1,Alabama,AL,36456,Butler,Mc kenzie,31.56841,-86.8062
1,Alabama,AL,36460,Monroe,Monroeville,31.51897,-87.3048
1,Alabama,AL,36467,Covington,Opp,31.28102,-86.2569
1,Alabama,AL,36470,Monroe,Perdue hill,31.51519,-87.5659
1,Alabama,AL,36471,Monroe,Peterman,31.61642,-87.2489
1,Alabama,AL,36473,Conecuh,Range,31.30723,-87.2021
1,Alabama,AL,36474,Covington,Red level,31.42969,-86.626
1,Alabama,AL,36475,Conecuh,Repton,31.38768,-87.2197
1,Alabama,AL,36476,Covington,River falls,31.36236,-86.5497
1,Alabama,AL,36477,Geneva,Samson,31.09718,-86.0614
1,Alabama,AL,36480,Monroe,Uriah,31.32501,-87.5991
1,Alabama,AL,36481,Monroe,Vredenburgh,31.77151,-87.3826
1,Alabama,AL,36482,Clarke,Whatley,31.63932,-87.6369
1,Alabama,AL,36483,Covington,Wing,31.0478,-86.6742
1,Alabama,AL,364HH,Clarke,Zcta 364hh,#N/A,#N/A
1,Alabama,AL,364XX,Clarke,Zcta 364xx,#N/A,#N/A
1,Alabama,AL,36501,Clarke,Alma,#N/A,#N/A
1,Alabama,AL,36502,Escambia,Atmore,31.14773,-87.4948
1,Alabama,AL,36505,Mobile,Axis,30.94195,-88.0158
1,Alabama,AL,36507,Baldwin,Bay minette,30.85861,-87.742
1,Alabama,AL,36509,Mobile,Bayou la batre,30.39302,-88.2702
1,Alabama,AL,36511,Baldwin,Bon secour,30.31516,-87.7472
1,Alabama,AL,36513,Washington,Calvert,31.17387,-88.0058
1,Alabama,AL,36515,Clarke,Carlton,#N/A,#N/A
1,Alabama,AL,36518,Washington,Chatom,31.4593,-88.284
1,Alabama,AL,36521,Mobile,Chunchula,30.96499,-88.1773
1,Alabama,AL,36522,Mobile,Citronelle,31.09095,-88.2754
1,Alabama,AL,36523,Mobile,Coden,30.3708,-88.1908
1,Alabama,AL,36524,Clarke,Coffeeville,31.80262,-88.0109
1,Alabama,AL,36525,Mobile,Creola,30.8901,-88.0187
1,Alabama,AL,36526,Baldwin,Daphne,30.61115,-87.8599
1,Alabama,AL,36527,Baldwin,Spanish fort,30.70208,-87.8819
1,Alabama,AL,36528,Mobile,Dauphin island,30.2355,-88.2362
1,Alabama,AL,36529,Washington,Deer park,31.27536,-88.2288
1,Alabama,AL,36530,Baldwin,Elberta,30.40821,-87.5556
1,Alabama,AL,36532,Baldwin,Fairhope,30.48071,-87.8613
1,Alabama,AL,36535,Baldwin,Foley,30.384,-87.7274
1,Alabama,AL,36538,Washington,Frankville,31.65705,-88.1433
1,Alabama,AL,36539,Washington,Fruitdale,31.34861,-88.3806
1,Alabama,AL,36540,Clarke,Gainestown,31.44895,-87.6758
1,Alabama,AL,36541,Mobile,Grand bay,30.48954,-88.3441
1,Alabama,AL,36542,Baldwin,Fort morgan,30.26965,-87.7506
1,Alabama,AL,36544,Mobile,Irvington,30.4797,-88.2301
1,Alabama,AL,36545,Clarke,Jackson,31.48851,-87.8717
1,Alabama,AL,36548,Washington,Leroy,31.48898,-87.9677
1,Alabama,AL,36549,Baldwin,Lillian,30.411,-87.4556
1,Alabama,AL,36550,Baldwin,Little river,31.24943,-87.7304
1,Alabama,AL,36551,Baldwin,Loxley,30.64711,-87.7531
1,Alabama,AL,36553,Washington,Mc intosh,31.2433,-88.0678
1,Alabama,AL,36556,Washington,Malcolm,31.19771,-87.976
1,Alabama,AL,36558,Washington,Millry,31.60814,-88.3164
1,Alabama,AL,36559,Baldwin,Montrose,30.56779,-87.9087
1,Alabama,AL,36560,Mobile,Mount vernon,31.09777,-88.0401
1,Alabama,AL,36561,Baldwin,Orange beach,30.2887,-87.5715
1,Alabama,AL,36562,Baldwin,Perdido,31.03706,-87.6704
1,Alabama,AL,36564,Baldwin,Point clear,30.48325,-87.9347
1,Alabama,AL,36567,Baldwin,Robertsdale,30.62354,-87.557
1,Alabama,AL,36569,Washington,Saint stephens,31.54248,-88.0913
1,Alabama,AL,36570,Clarke,Salitpa,#N/A,#N/A
1,Alabama,AL,36571,Mobile,Saraland,30.85468,-88.11
1,Alabama,AL,36572,Mobile,Satsuma,30.85772,-88.0614
1,Alabama,AL,36574,Baldwin,Seminole,30.50111,-87.4784
1,Alabama,AL,36575,Mobile,Semmes,30.76916,-88.2734
1,Alabama,AL,36576,Baldwin,Silverhill,30.52295,-87.7638
1,Alabama,AL,36577,Baldwin,Zcta 36577,#N/A,#N/A
1,Alabama,AL,36578,Baldwin,Stapleton,30.74929,-87.7791
1,Alabama,AL,36579,Baldwin,Stockton,31.10682,-87.7969
1,Alabama,AL,36580,Baldwin,Summerdale,30.4789,-87.7034
1,Alabama,AL,36581,Washington,Sunflower,31.37536,-87.9656
1,Alabama,AL,36582,Mobile,Theodore,30.50988,-88.173
1,Alabama,AL,36583,Washington,Tibbie,31.36732,-88.195
1,Alabama,AL,36584,Washington,Vinegar bend,31.1991,-88.3887
1,Alabama,AL,36585,Washington,Wagarville,31.38732,-88.0797
1,Alabama,AL,36587,Mobile,Wilmer,30.84424,-88.3512
1,Alabama,AL,365HH,Baldwin,Zcta 365hh,#N/A,#N/A
1,Alabama,AL,365XX,Washington,Zcta 365xx,#N/A,#N/A
1,Alabama,AL,36602,Mobile,Mobile,30.69333,-88.0455
1,Alabama,AL,36603,Mobile,Mobile,30.67398,-88.0267
1,Alabama,AL,36604,Mobile,Mobile,30.68221,-88.0681
1,Alabama,AL,36605,Mobile,Mobile,30.60455,-88.0878
1,Alabama,AL,36606,Mobile,Mobile,30.66879,-88.1059
1,Alabama,AL,36607,Mobile,Mobile,30.69856,-88.1058
1,Alabama,AL,36608,Mobile,Mobile,30.6815,-88.3002
1,Alabama,AL,36609,Mobile,Mobile,30.66025,-88.1635
1,Alabama,AL,36610,Mobile,Prichard,30.73625,-88.0735
1,Alabama,AL,36611,Mobile,Chickasaw,30.76962,-88.0801
1,Alabama,AL,36612,Mobile,Mobile,30.75288,-88.1131
1,Alabama,AL,36613,Mobile,Eight mile,30.80984,-88.1875
1,Alabama,AL,36617,Mobile,Mobile,30.71603,-88.0957
1,Alabama,AL,36618,Mobile,Mobile,30.7369,-88.1698
1,Alabama,AL,36619,Mobile,Mobile,30.59609,-88.1966
1,Alabama,AL,36693,Mobile,Mobile,30.6257,-88.1497
1,Alabama,AL,36695,Mobile,Mobile,30.62839,-88.2803
1,Alabama,AL,366HH,Mobile,Zcta 366hh,#N/A,#N/A
1,Alabama,AL,36701,Dallas,Selma,32.48397,-87.0546
1,Alabama,AL,36703,Dallas,Selma,32.42735,-86.9129
1,Alabama,AL,36720,Wilcox,Alberta,32.1582,-87.3446
1,Alabama,AL,36722,Wilcox,Arlington,32.09492,-87.5715
1,Alabama,AL,36723,Wilcox,Boykin,32.05363,-87.2745
1,Alabama,AL,36726,Wilcox,Camden,31.96363,-87.2959
1,Alabama,AL,36727,Clarke,Campbell,31.91099,-88.0339
1,Alabama,AL,36728,Wilcox,Catherine,32.1614,-87.4762
1,Alabama,AL,36732,Marengo,Demopolis,32.42931,-87.9142
1,Alabama,AL,36736,Marengo,Dixons mills,32.06028,-87.7762
1,Alabama,AL,36738,Marengo,Faunsdale,32.42097,-87.625
1,Alabama,AL,36740,Greene,Forkland,32.62678,-87.8366
1,Alabama,AL,36742,Marengo,Gallion,32.46787,-87.7295
1,Alabama,AL,36744,Hale,Greensboro,32.69595,-87.5997
1,Alabama,AL,36748,Marengo,Linden,32.26728,-87.7809
1,Alabama,AL,36749,Autauga,Jones,32.55113,-86.8495
1,Alabama,AL,36750,Chilton,Maplesville,32.78962,-86.8494
1,Alabama,AL,36751,Wilcox,Lower peach tree,31.8243,-87.5457
1,Alabama,AL,36752,Lowndes,Burkville,32.29867,-86.632
1,Alabama,AL,36754,Marengo,Magnolia,32.15406,-87.7009
1,Alabama,AL,36756,Perry,Marion,32.68387,-87.2759
1,Alabama,AL,36758,Dallas,Plantersville,32.63878,-86.89
1,Alabama,AL,36759,Dallas,Marion junction,32.41675,-87.2776
1,Alabama,AL,36761,Dallas,Boys ranch,32.10617,-86.978
1,Alabama,AL,36763,Marengo,Myrtlewood,32.27681,-87.9809
1,Alabama,AL,36765,Hale,Newbern,32.58817,-87.5222
1,Alabama,AL,36767,Dallas,Orrville,32.25929,-87.1911
1,Alabama,AL,36768,Wilcox,Pine apple,31.91263,-87.0197
1,Alabama,AL,36769,Wilcox,Pine hill,32.00786,-87.5474
1,Alabama,AL,36773,Dallas,Safford,32.25894,-87.3575
1,Alabama,AL,36775,Dallas,Sardis,32.17554,-86.9792
1,Alabama,AL,36776,Hale,Sawyerville,32.73561,-87.7414
1,Alabama,AL,36779,Perry,Sprott,#N/A,#N/A
1,Alabama,AL,36782,Marengo,Sweet water,32.11613,-87.913
1,Alabama,AL,36783,Marengo,Thomaston,32.24778,-87.5978
1,Alabama,AL,36784,Clarke,Thomasville,31.92693,-87.7879
1,Alabama,AL,36785,Lowndes,Benton,32.26052,-86.8458
1,Alabama,AL,36786,Perry,Uniontown,32.43107,-87.4822
1,Alabama,AL,36790,Chilton,Stanton,32.7336,-86.8936
1,Alabama,AL,36792,Bibb,Randolph,32.92585,-86.9062
1,Alabama,AL,36793,Bibb,Lawley,32.82161,-87.0275
1,Alabama,AL,367HH,Autauga,Zcta 367hh,#N/A,#N/A
1,Alabama,AL,367XX,Marengo,Zcta 367xx,#N/A,#N/A
1,Alabama,AL,36801,Lee,Opelika,32.69476,-85.3956
1,Alabama,AL,36804,Lee,Zcta 36804,32.53425,-85.3474
1,Alabama,AL,36830,Lee,Auburn,32.53893,-85.4926
1,Alabama,AL,36832,Lee,Auburn,32.58294,-85.5859
1,Alabama,AL,36849,Lee,Auburn,32.60242,-85.4873
1,Alabama,AL,36850,Tallapoosa,Camp hill,32.78323,-85.6586
1,Alabama,AL,36852,Lee,Cusseta,32.75718,-85.2925
1,Alabama,AL,36853,Tallapoosa,Dadeville,32.81652,-85.7672
1,Alabama,AL,36854,Chambers,Valley,32.75161,-85.1895
1,Alabama,AL,36855,Chambers,Five points,33.02891,-85.3082
1,Alabama,AL,36856,Russell,Fort mitchell,32.2745,-84.9978
1,Alabama,AL,36858,Russell,Hatchechubbee,32.32827,-85.3304
1,Alabama,AL,36860,Russell,Hurtsboro,32.2744,-85.4245
1,Alabama,AL,36861,Tallapoosa,Jacksons gap,32.89088,-85.8506
1,Alabama,AL,36862,Chambers,Lafayette,32.90397,-85.4552
1,Alabama,AL,36863,Chambers,Lanett,32.88949,-85.2638
1,Alabama,AL,36866,Macon,Notasulga,32.56531,-85.7121
1,Alabama,AL,36867,Russell,Phenix city,32.49532,-85.0246
1,Alabama,AL,36869,Russell,Phenix city,32.42041,-85.0642
1,Alabama,AL,36870,Lee,Zcta 36870,32.48288,-85.1203
1,Alabama,AL,36871,Russell,Pittsview,32.17871,-85.1572
1,Alabama,AL,36874,Lee,Salem,32.56425,-85.1985
1,Alabama,AL,36875,Russell,Seale,32.33684,-85.1666
1,Alabama,AL,36877,Lee,Smiths,32.57315,-85.1014
1,Alabama,AL,36879,Lee,Waverly,32.72756,-85.5584
1,Alabama,AL,368HH,Chambers,Zcta 368hh,#N/A,#N/A
1,Alabama,AL,36901,Sumter,Bellamy,32.42164,-88.1473
1,Alabama,AL,36904,Choctaw,Butler,32.10059,-88.2608
1,Alabama,AL,36907,Sumter,Cuba,32.42638,-88.3467
1,Alabama,AL,36908,Choctaw,Gilbertown,31.87054,-88.3911
1,Alabama,AL,36910,Choctaw,Jachin,32.2046,-88.147
1,Alabama,AL,36912,Choctaw,Lisman,32.23041,-88.3026
1,Alabama,AL,36915,Choctaw,Needham,31.95509,-88.3587
1,Alabama,AL,36916,Choctaw,Pennington,32.20984,-88.0599
1,Alabama,AL,36919,Choctaw,Silas,31.76905,-88.2829
1,Alabama,AL,36921,Choctaw,Toxey,31.93843,-88.1828
1,Alabama,AL,36922,Choctaw,Ward,32.30034,-88.142
1,Alabama,AL,36925,Sumter,York,32.43225,-88.1836
1,Alabama,AL,369HH,Choctaw,Zcta 369hh,#N/A,#N/A
1,Alabama,AL,369XX,Choctaw,Zcta 369xx,#N/A,#N/A
1,Alabama,AL,38852,Colbert,,34.84369,-88.2132
2,Alaska,AK,99501,Anchorage Borough,Anchorage,61.22002,-149.856
2,Alaska,AK,99502,Anchorage Borough,Anchorage,61.16364,-149.997
2,Alaska,AK,99503,Anchorage Borough,Anchorage,62.04395,-158.176
2,Alaska,AK,99504,Anchorage Borough,Anchorage,61.2046,-149.746
2,Alaska,AK,99505,Anchorage Borough,Fort richardson,61.25685,-149.603
2,Alaska,AK,99506,Anchorage Borough,Elmendorf afb,61.25346,-149.811
2,Alaska,AK,99507,Anchorage Borough,Anchorage,61.14766,-149.754
2,Alaska,AK,99508,Anchorage Borough,Anchorage,61.2014,-149.818
2,Alaska,AK,99513,Anchorage Borough,Anchorage,61.21477,-149.886
2,Alaska,AK,99515,Anchorage Borough,Anchorage,61.11638,-149.89
2,Alaska,AK,99516,Anchorage Borough,Anchorage,61.07937,-149.71
2,Alaska,AK,99517,Anchorage Borough,Anchorage,61.19035,-149.939
2,Alaska,AK,99518,Anchorage Borough,Anchorage,61.15958,-149.885
2,Alaska,AK,99540,Anchorage Borough,Indian,60.99024,-149.42
2,Alaska,AK,99546,Aleutians West Census Area,Zcta 99546,51.82944,-176.63
2,Alaska,AK,99547,Aleutians West Census Area,Atka,52.21309,-174.216
2,Alaska,AK,99548,Lake and Peninsula Borough,Chignik lake,56.2374,-158.752
2,Alaska,AK,99549,Lake and Peninsula Borough,Port heiden,56.96418,-158.581
2,Alaska,AK,99550,Kodiak Island Borough,Port lions,57.90411,-153.043
2,Alaska,AK,99551,Bethel Census Area,Akiachak,60.90289,-161.422
2,Alaska,AK,99552,Bethel Census Area,Akiak,60.90958,-161.227
2,Alaska,AK,99553,Aleutians East Borough,Akutan,54.11732,-165.831
2,Alaska,AK,99554,Wade Hampton Census Area,Alakanuk,62.71116,-164.645
2,Alaska,AK,99555,Dillingham Census Area,Aleknagik,59.26032,-158.655
2,Alaska,AK,99556,Kenai Peninsula Borough,Nikolaevsk,59.89996,-151.57
2,Alaska,AK,99557,Bethel Census Area,Chuathbaluk,61.42012,-156.044
2,Alaska,AK,99558,Yukon-Koyukuk Census Area,Anvik,62.631,-160.214
2,Alaska,AK,99559,Bethel Census Area,Atmautluak,60.81416,-161.851
2,Alaska,AK,99561,Bethel Census Area,Chefornak,60.15122,-164.251
2,Alaska,AK,99563,Wade Hampton Census Area,Chevak,61.53107,-165.597
2,Alaska,AK,99564,Lake and Peninsula Borough,Chignik,56.30467,-158.396
2,Alaska,AK,99565,Lake and Peninsula Borough,Chignik lagoon,56.30458,-158.498
2,Alaska,AK,99566,Valdez-Cordova Census Area,Chitina,61.27091,-142.606
2,Alaska,AK,99567,Anchorage Borough,Chugiak,61.29935,-149.021
2,Alaska,AK,99568,Kenai Peninsula Borough,Clam gulch,60.2089,-151.404
2,Alaska,AK,99569,Dillingham Census Area,Clarks point,58.80515,-158.53
2,Alaska,AK,99571,Aleutians East Borough,Nelson lagoon,55.21579,-162.776
2,Alaska,AK,99572,Kenai Peninsula Borough,Cooper landing,60.52989,-149.953
2,Alaska,AK,99573,Valdez-Cordova Census Area,Copper center,61.71231,-145.952
2,Alaska,AK,99574,Valdez-Cordova Census Area,Chenega bay,60.894,-145.109
2,Alaska,AK,99575,Bethel Census Area,Crooked creek,61.79685,-158.081
2,Alaska,AK,99576,Dillingham Census Area,Koliganek,60.26111,-159.093
2,Alaska,AK,99577,Anchorage Borough,Eagle river,61.20142,-149.248
2,Alaska,AK,99578,Bethel Census Area,Eek,60.21424,-162.03
2,Alaska,AK,99579,Lake and Peninsula Borough,Egegik,58.20272,-157.409
2,Alaska,AK,99580,Dillingham Census Area,Ekwok,59.36554,-157.491
2,Alaska,AK,99581,Wade Hampton Census Area,Emmonak,62.78518,-164.566
2,Alaska,AK,99583,Aleutians East Borough,False pass,54.8901,-163.411
2,Alaska,AK,99585,Wade Hampton Census Area,Marshall,61.91871,-162.288
2,Alaska,AK,99586,Valdez-Cordova Census Area,Slana,62.8328,-143.31
2,Alaska,AK,99587,Anchorage Borough,Girdwood,60.96581,-148.877
2,Alaska,AK,99588,Valdez-Cordova Census Area,Glennallen,62.4022,-146.946
2,Alaska,AK,99589,Bethel Census Area,Goodnews bay,59.12749,-161.569
2,Alaska,AK,99590,Yukon-Koyukuk Census Area,Grayling,62.89604,-160.113
2,Alaska,AK,99591,Aleutians West Census Area,Saint george isl,56.58233,-169.635
2,Alaska,AK,995HH,Aleutians East Borough,Zcta 995hh,#N/A,#N/A
2,Alaska,AK,995XX,Valdez-Cordova Census Area,Zcta 995xx,#N/A,#N/A
2,Alaska,AK,99602,Yukon-Koyukuk Census Area,Holy cross,62.18702,-159.856
2,Alaska,AK,99603,Kenai Peninsula Borough,Port graham,59.53852,-151.187
2,Alaska,AK,99604,Wade Hampton Census Area,Hooper bay,61.53638,-166.123
2,Alaska,AK,99605,Kenai Peninsula Borough,Hope,60.78731,-149.555
2,Alaska,AK,99606,Lake and Peninsula Borough,Kokhanok,59.85133,-154.555
2,Alaska,AK,99607,Bethel Census Area,Kalskag,61.75749,-159.784
2,Alaska,AK,99608,Kodiak Island Borough,Karluk,#N/A,#N/A
2,Alaska,AK,99609,Bethel Census Area,Kasigluk,60.86406,-162.538
2,Alaska,AK,99610,Kenai Peninsula Borough,Kasilof,60.26487,-150.611
2,Alaska,AK,99611,Kenai Peninsula Borough,Kenai,60.60046,-151.106
2,Alaska,AK,99612,Aleutians East Borough,King cove,55.05878,-162.274
2,Alaska,AK,99613,Bristol Bay Borough,Igiugig,59.01027,-155.902
2,Alaska,AK,99614,Bethel Census Area,Kipnuk,59.93645,-164.062
2,Alaska,AK,99615,Kodiak Island Borough,Akhiok,57.65048,-153.261
2,Alaska,AK,99620,Wade Hampton Census Area,Kotlik,63.02875,-163.536
2,Alaska,AK,99621,Bethel Census Area,Kwethluk,60.79322,-161.431
2,Alaska,AK,99622,Bethel Census Area,Kwigillingok,59.87423,-163.206
2,Alaska,AK,99624,Kodiak Island Borough,Larsen bay,57.58768,-153.913
2,Alaska,AK,99625,Lake and Peninsula Borough,Levelock,59.29026,-156.652
2,Alaska,AK,99626,Bethel Census Area,Lower kalskag,61.51697,-160.365
2,Alaska,AK,99627,Yukon-Koyukuk Census Area,Mc grath,63.45435,-154.736
2,Alaska,AK,99628,Dillingham Census Area,Manokotak,58.95743,-159.212
2,Alaska,AK,99630,Bethel Census Area,Mekoryuk,60.37078,-166.267
2,Alaska,AK,99631,Kenai Peninsula Borough,Moose pass,60.61536,-149.373
2,Alaska,AK,99632,Wade Hampton Census Area,Mountain village,62.11234,-163.664
2,Alaska,AK,99633,Bristol Bay Borough,Naknek,58.78758,-156.893
2,Alaska,AK,99634,Bethel Census Area,Napakiak,60.68293,-161.999
2,Alaska,AK,99635,Kenai Peninsula Borough,Nikiski,#N/A,#N/A
2,Alaska,AK,99636,Dillingham Census Area,New stuyahok,59.48816,-157.291
2,Alaska,AK,99637,Bethel Census Area,Toksook bay,60.55227,-165.108
2,Alaska,AK,99638,Aleutians West Census Area,Nikolski,52.89777,-168.943
2,Alaska,AK,99639,Kenai Peninsula Borough,Ninilchik,60.06171,-151.406
2,Alaska,AK,99640,Lake and Peninsula Borough,Nondalton,60.00257,-155.391
2,Alaska,AK,99641,Bethel Census Area,Nunapitchuk,60.88247,-162.464
2,Alaska,AK,99643,Kodiak Island Borough,Old harbor,57.22008,-153.33
2,Alaska,AK,99644,Kodiak Island Borough,Ouzinkie,57.91023,-152.383
2,Alaska,AK,99645,Matanuska-Susitna Borough,Butte,61.62449,-148.98
2,Alaska,AK,99647,Lake and Peninsula Borough,Pedro bay,59.87854,-154.072
2,Alaska,AK,99648,Lake and Peninsula Borough,Perryville,55.9306,-159.147
2,Alaska,AK,99649,Lake and Peninsula Borough,Pilot point,57.50044,-157.281
2,Alaska,AK,99650,Wade Hampton Census Area,Pilot station,61.94662,-162.878
2,Alaska,AK,99651,Bethel Census Area,Platinum,59.00069,-161.688
2,Alaska,AK,99652,Matanuska-Susitna Borough,Big lake,61.52977,-149.981
2,Alaska,AK,99653,Lake and Peninsula Borough,Port alsworth,60.1984,-154.275
2,Alaska,AK,99654,Matanuska-Susitna Borough,Wasilla,61.44911,-149.901
2,Alaska,AK,99655,Bethel Census Area,Quinhagak,59.74144,-161.887
2,Alaska,AK,99656,Bethel Census Area,Red devil,61.92787,-157.625
2,Alaska,AK,99657,Wade Hampton Census Area,Russian mission,61.72828,-161.669
2,Alaska,AK,99658,Wade Hampton Census Area,Saint marys,62.09167,-163.254
2,Alaska,AK,99659,Nome Census Area,Saint michael,63.46429,-162.13
2,Alaska,AK,99660,Aleutians West Census Area,Saint paul islan,57.17904,-170.325
2,Alaska,AK,99661,Aleutians East Borough,Sand point,55.24715,-160.685
2,Alaska,AK,99662,Wade Hampton Census Area,Scammon bay,61.79182,-165.962
2,Alaska,AK,99663,Kenai Peninsula Borough,Seldovia,59.40119,-151.625
2,Alaska,AK,99664,Kenai Peninsula Borough,Seward,60.07634,-149.493
2,Alaska,AK,99665,Yukon-Koyukuk Census Area,Shageluk,62.64584,-159.527
2,Alaska,AK,99666,Wade Hampton Census Area,Sheldon point,62.44063,-165.146
2,Alaska,AK,99667,Matanuska-Susitna Borough,Skwentna,61.67898,-152.125
2,Alaska,AK,99668,Bethel Census Area,Sleetmute,61.68245,-157.158
2,Alaska,AK,99669,Kenai Peninsula Borough,Soldotna,60.36015,-151.018
2,Alaska,AK,99670,Bristol Bay Borough,South naknek,58.66004,-156.988
2,Alaska,AK,99671,Nome Census Area,Stebbins,63.47225,-162.262
2,Alaska,AK,99672,Kenai Peninsula Borough,Sterling,60.75258,-150.629
2,Alaska,AK,99674,Matanuska-Susitna Borough,Chickaloon,61.59128,-148.062
2,Alaska,AK,99675,Yukon-Koyukuk Census Area,Takotna,#N/A,#N/A
2,Alaska,AK,99676,Matanuska-Susitna Borough,Talkeetna,62.45013,-149.79
2,Alaska,AK,99677,Valdez-Cordova Census Area,Tatitlek,60.89388,-146.67
2,Alaska,AK,99678,Dillingham Census Area,Togiak,59.39986,-159.907
2,Alaska,AK,99679,Bethel Census Area,Tuluksak,61.10427,-160.938
2,Alaska,AK,99680,Bethel Census Area,Tuntutuliak,60.38501,-162.684
2,Alaska,AK,99681,Bethel Census Area,Tununak,60.60708,-165.128
2,Alaska,AK,99682,Kenai Peninsula Borough,Tyonek,60.35211,-153.109
2,Alaska,AK,99683,Matanuska-Susitna Borough,Trapper creek,62.51481,-151.03
2,Alaska,AK,99684,Nome Census Area,Unalakleet,63.98509,-160.407
2,Alaska,AK,99685,Aleutians West Census Area,Unalaska,53.8718,-166.483
2,Alaska,AK,99686,Valdez-Cordova Census Area,Valdez,61.15008,-146.81
2,Alaska,AK,99687,Matanuska-Susitna Borough,Wasilla,#N/A,#N/A
2,Alaska,AK,99688,Matanuska-Susitna Borough,Willow,61.88703,-149.62
2,Alaska,AK,99689,Yakutat Borou,Yakutat,59.48456,-139.419
2,Alaska,AK,99690,Bethel Census Area,Nightmute,60.52372,-164.833
2,Alaska,AK,99691,Yukon-Koyukuk Census Area,Nikolai,62.81768,-153.375
2,Alaska,AK,99692,Aleutians West Census Area,Dutch harbor,53.88581,-166.538
2,Alaska,AK,99693,Valdez-Cordova Census Area,Whittier,60.85056,-148.034
2,Alaska,AK,99694,Matanuska-Susitna Borough,Houston,61.6241,-149.785
2,Alaska,AK,99695,Matanuska-Susitna Borough,Anchorage,55.9182,-159.493
2,Alaska,AK,99697,Kodiak Island Borough,Kodiak,#N/A,#N/A
2,Alaska,AK,996HH,Aleutians East Borough,Zcta 996hh,#N/A,#N/A
2,Alaska,AK,996XX,Yakutat Borou,Zcta 996xx,#N/A,#N/A
2,Alaska,AK,99701,Fairbanks North Star Borough,Coldfoot,67.09455,-149.336
2,Alaska,AK,99702,Fairbanks North Star Borough,Eielson afb,64.65062,-147.052
2,Alaska,AK,99703,Fairbanks North Star Borough,Fort wainwright,64.83262,-147.623
2,Alaska,AK,99704,Denali Borough,Clear,64.29615,-149.15
2,Alaska,AK,99705,Fairbanks North Star Borough,North pole,64.76183,-147.314
2,Alaska,AK,99709,Fairbanks North Star Borough,Fairbanks,64.86297,-148.164
2,Alaska,AK,99712,Fairbanks North Star Borough,Fairbanks,65.05872,-145.925
2,Alaska,AK,99714,Fairbanks North Star Borough,Salcha,64.38453,-146.554
2,Alaska,AK,99720,Yukon-Koyukuk Census Area,Allakaket,66.56402,-152.767
2,Alaska,AK,99721,North Slope Borough,Anaktuvuk pass,68.15493,-151.705
2,Alaska,AK,99722,Yukon-Koyukuk Census Area,Arctic village,68.09194,-145.604
2,Alaska,AK,99723,North Slope Borough,Barrow,71.2535,-156.8
2,Alaska,AK,99724,Yukon-Koyukuk Census Area,Beaver,66.39058,-147.338
2,Alaska,AK,99725,Fairbanks North Star Borough,Ester,#N/A,#N/A
2,Alaska,AK,99726,Yukon-Koyukuk Census Area,Bettles field,67.16864,-152.285
2,Alaska,AK,99727,Northwest Arctic Borough,Buckland,65.97591,-161.139
2,Alaska,AK,99729,Denali Borough,Cantwell,63.00617,-149.401
2,Alaska,AK,99730,Yukon-Koyukuk Census Area,Central,65.6498,-145.588
2,Alaska,AK,99732,Southeast Fairbanks Census Area,Chicken,64.07175,-142.008
2,Alaska,AK,99733,Yukon-Koyukuk Census Area,Circle,65.83858,-144.175
2,Alaska,AK,99736,Northwest Arctic Borough,Deering,66.08498,-162.761
2,Alaska,AK,99737,Southeast Fairbanks Census Area,Dot lake,63.77953,-145.098
2,Alaska,AK,99738,Southeast Fairbanks Census Area,Eagle,65.63415,-141.882
2,Alaska,AK,99739,Nome Census Area,Elim,65.02399,-162.488
2,Alaska,AK,99740,Yukon-Koyukuk Census Area,Fort yukon,67.87464,-144.597
2,Alaska,AK,99741,Yukon-Koyukuk Census Area,Galena,64.73615,-156.873
2,Alaska,AK,99742,Nome Census Area,Gambell,63.7772,-171.726
2,Alaska,AK,99743,Denali Borough,Healy,63.68111,-150.027
2,Alaska,AK,99744,Denali Borough,Anderson,64.30828,-149.163
2,Alaska,AK,99745,Yukon-Koyukuk Census Area,Hughes,66.04475,-154.237
2,Alaska,AK,99746,Yukon-Koyukuk Census Area,Huslia,65.60033,-158.19
2,Alaska,AK,99747,North Slope Borough,Kaktovik,70.11842,-143.687
2,Alaska,AK,99748,Yukon-Koyukuk Census Area,Kaltag,64.34629,-158.771
2,Alaska,AK,99749,Northwest Arctic Borough,Kiana,66.97843,-160.432
2,Alaska,AK,99750,Northwest Arctic Borough,Kivalina,67.72864,-164.543
2,Alaska,AK,99751,Northwest Arctic Borough,Kobuk,66.92269,-156.875
2,Alaska,AK,99752,Northwest Arctic Borough,Kotzebue,67.26312,-161.919
2,Alaska,AK,99753,Nome Census Area,Koyuk,64.93961,-161.151
2,Alaska,AK,99754,Yukon-Koyukuk Census Area,Koyukuk,64.90221,-157.694
2,Alaska,AK,99755,Denali Borough,Denali national,63.78498,-148.521
2,Alaska,AK,99756,Yukon-Koyukuk Census Area,Manley hot sprin,64.5652,-151.752
2,Alaska,AK,99757,Yukon-Koyukuk Census Area,Lake minchumina,63.81489,-152.646
2,Alaska,AK,99758,Yukon-Koyukuk Census Area,Minto,65.15178,-149.372
2,Alaska,AK,99759,North Slope Borough,Point lay,69.73713,-162.835
2,Alaska,AK,99760,Yukon-Koyukuk Census Area,Nenana,64.25054,-148.128
2,Alaska,AK,99761,Northwest Arctic Borough,Noatak,67.62099,-163.058
2,Alaska,AK,99762,Nome Census Area,Golovin,64.74402,-164.659
2,Alaska,AK,99763,Northwest Arctic Borough,Noorvik,66.82791,-161.029
2,Alaska,AK,99764,Southeast Fairbanks Census Area,Northway,63.29186,-141.454
2,Alaska,AK,99765,Yukon-Koyukuk Census Area,Nulato,64.72932,-158.132
2,Alaska,AK,99766,North Slope Borough,Point hope,68.7026,-164.807
2,Alaska,AK,99767,Yukon-Koyukuk Census Area,Rampart,65.4992,-150.154
2,Alaska,AK,99768,Yukon-Koyukuk Census Area,Ruby,65.03303,-154.913
2,Alaska,AK,99769,Nome Census Area,Savoonga,63.67952,-170.481
2,Alaska,AK,99770,Northwest Arctic Borough,Selawik,66.74627,-159.511
2,Alaska,AK,99771,Nome Census Area,Shaktoolik,64.36399,-161.205
2,Alaska,AK,99772,Nome Census Area,Shishmaref,66.00347,-165.911
2,Alaska,AK,99773,Northwest Arctic Borough,Shungnak,66.88764,-157.165
2,Alaska,AK,99774,Yukon-Koyukuk Census Area,Stevens village,66.02371,-149.08
2,Alaska,AK,99775,Fairbanks North Star Borough,Fairbanks,64.85813,-147.825
2,Alaska,AK,99776,Southeast Fairbanks Census Area,Tanacross,63.3947,-143.403
2,Alaska,AK,99777,Yukon-Koyukuk Census Area,Tanana,65.24853,-151.999
2,Alaska,AK,99778,Nome Census Area,Teller,65.05902,-166.43
2,Alaska,AK,99779,Southeast Fairbanks Census Area,Tetlin,#N/A,#N/A
2,Alaska,AK,99780,Southeast Fairbanks Census Area,Border,63.18124,-143.102
2,Alaska,AK,99781,Yukon-Koyukuk Census Area,Venetie,67.46863,-146.065
2,Alaska,AK,99782,North Slope Borough,Wainwright,70.64577,-159.899
2,Alaska,AK,99783,Nome Census Area,Wales,65.67658,-168.08
2,Alaska,AK,99784,Nome Census Area,White mountain,64.68172,-163.406
2,Alaska,AK,99785,Nome Census Area,Brevig mission,65.34392,-166.508
2,Alaska,AK,99786,Northwest Arctic Borough,Ambler,67.16756,-156.338
2,Alaska,AK,99788,Yukon-Koyukuk Census Area,Chalkyitsik,66.64686,-143.789
2,Alaska,AK,99789,North Slope Borough,Nuiqsut,70.00175,-151.935
2,Alaska,AK,99791,North Slope Borough,Atqasuk,70.4684,-156.795
2,Alaska,AK,997HH,Denali Borough,Zcta 997hh,#N/A,#N/A
2,Alaska,AK,997XX,Northwest Arctic Borough,Zcta 997xx,#N/A,#N/A
2,Alaska,AK,99801,Juneau Borough,Juneau,58.37291,-134.178
2,Alaska,AK,99820,Skagway-Hoonah-Angoon Census Area,Angoon,57.43647,-134.227
2,Alaska,AK,99824,Juneau Borough,Douglas,58.26538,-134.4
2,Alaska,AK,99825,Skagway-Hoonah-Angoon Census Area,Elfin cove,58.15999,-135.736
2,Alaska,AK,99826,Skagway-Hoonah-Angoon Census Area,Gustavus,58.71014,-136.737
2,Alaska,AK,99827,Haines Borough,Haines,59.09877,-135.577
2,Alaska,AK,99829,Skagway-Hoonah-Angoon Census Area,Hoonah,58.10427,-135.4
2,Alaska,AK,99830,Wrangell-Petersburg Census Area,Kake,56.77108,-134.09
2,Alaska,AK,99832,Skagway-Hoonah-Angoon Census Area,Pelican,58.01548,-136.166
2,Alaska,AK,99833,Wrangell-Petersburg Census Area,Petersburg,56.92668,-133.12
2,Alaska,AK,99835,Sitka Borough,Sitka,57.0004,-135.077
2,Alaska,AK,99840,Skagway-Hoonah-Angoon Census Area,Skagway,59.5751,-135.335
2,Alaska,AK,99841,Skagway-Hoonah-Angoon Census Area,Tenakee springs,57.7943,-135.184
2,Alaska,AK,99850,Haines Borough,Juneau,#N/A,#N/A
2,Alaska,AK,998HH,Haines Borough,Zcta 998hh,#N/A,#N/A
2,Alaska,AK,998XX,Skagway-Hoonah-Angoon Census Area,Zcta 998xx,#N/A,#N/A
2,Alaska,AK,99901,Ketchikan Gateway Borough,Ketchikan,55.54041,-131.105
2,Alaska,AK,99903,Prince of Wales-Outer Ketchikan Census,Meyers chuck,55.81843,-132.066
2,Alaska,AK,99918,Prince of Wales-Outer Ketchikan Census,Coffman cove,55.91687,-132.696
2,Alaska,AK,99919,Prince of Wales-Outer Ketchikan Census,Thorne bay,55.64559,-132.497
2,Alaska,AK,99921,Prince of Wales-Outer Ketchikan Census,Craig,55.40703,-132.766
2,Alaska,AK,99922,Prince of Wales-Outer Ketchikan Census,Hydaburg,55.30753,-133.047
2,Alaska,AK,99923,Prince of Wales-Outer Ketchikan Census,Hyder,56.00232,-130.041
2,Alaska,AK,99925,Prince of Wales-Outer Ketchikan Census,Klawock,55.5502,-132.946
2,Alaska,AK,99926,Prince of Wales-Outer Ketchikan Census,Metlakatla,55.13835,-131.47
2,Alaska,AK,99927,Prince of Wales-Outer Ketchikan Census,Point baker,56.23906,-133.458
2,Alaska,AK,99929,Wrangell-Petersburg Census Area,Wrangell,56.37075,-131.693
2,Alaska,AK,99950,Ketchikan Gateway Borough,Ketchikan,#N/A,#N/A
2,Alaska,AK,999HH,Ketchikan Gateway Borough,Zcta 999hh,#N/A,#N/A
2,Alaska,AK,999XX,Prince of Wales-Outer Ketchikan Census,Zcta 999xx,#N/A,#N/A
4,Arizona,AZ,84536,Navajo,,37.12717,-110.351
4,Arizona,AZ,85003,Maricopa,Phoenix,33.45066,-112.078
4,Arizona,AZ,85004,Maricopa,Phoenix,33.45157,-112.07
4,Arizona,AZ,85006,Maricopa,Phoenix,33.46523,-112.049
4,Arizona,AZ,85007,Maricopa,Phoenix,33.44761,-112.091
4,Arizona,AZ,85008,Maricopa,Phoenix,33.46295,-111.985
4,Arizona,AZ,85009,Maricopa,Phoenix,33.4431,-112.128
4,Arizona,AZ,85012,Maricopa,Phoenix,33.50758,-112.071
4,Arizona,AZ,85013,Maricopa,Phoenix,33.51109,-112.085
4,Arizona,AZ,85014,Maricopa,Phoenix,33.50722,-112.058
4,Arizona,AZ,85015,Maricopa,Phoenix,33.50866,-112.102
4,Arizona,AZ,85016,Maricopa,Phoenix,33.51152,-112.019
4,Arizona,AZ,85017,Maricopa,Phoenix,33.50878,-112.123
4,Arizona,AZ,85018,Maricopa,Phoenix,33.50596,-111.985
4,Arizona,AZ,85019,Maricopa,Phoenix,33.50888,-112.145
4,Arizona,AZ,85020,Maricopa,Phoenix,33.56735,-112.054
4,Arizona,AZ,85021,Maricopa,Phoenix,33.55942,-112.093
4,Arizona,AZ,85022,Maricopa,Phoenix,33.62724,-112.048
4,Arizona,AZ,85023,Maricopa,Phoenix,33.63511,-112.094
4,Arizona,AZ,85024,Maricopa,Phoenix,33.7361,-112.03
4,Arizona,AZ,85027,Maricopa,New river stage,33.67976,-112.093
4,Arizona,AZ,85028,Maricopa,Phoenix,33.57574,-112.008
4,Arizona,AZ,85029,Maricopa,Phoenix,33.59474,-112.11
4,Arizona,AZ,85031,Maricopa,Phoenix,33.49397,-112.167
4,Arizona,AZ,85032,Maricopa,Phoenix,33.62592,-112.003
4,Arizona,AZ,85033,Maricopa,Phoenix,33.49297,-112.21
4,Arizona,AZ,85034,Maricopa,Phoenix,33.42958,-112.014
4,Arizona,AZ,85035,Maricopa,Phoenix,33.47145,-112.195
4,Arizona,AZ,85037,Maricopa,Phoenix,33.48671,-112.268
4,Arizona,AZ,85040,Maricopa,Phoenix,33.40648,-112.025
4,Arizona,AZ,85041,Maricopa,Phoenix,33.38593,-112.11
4,Arizona,AZ,85043,Maricopa,Phoenix,33.43191,-112.197
4,Arizona,AZ,85044,Maricopa,Phoenix,33.35296,-112.019
4,Arizona,AZ,85045,Maricopa,Phoenix,33.29889,-112.106
4,Arizona,AZ,85048,Maricopa,Phoenix,33.31255,-112.057
4,Arizona,AZ,85050,Maricopa,Phoenix,33.68274,-111.998
4,Arizona,AZ,85051,Maricopa,Phoenix,33.55866,-112.132
4,Arizona,AZ,85053,Maricopa,Phoenix,33.62992,-112.132
4,Arizona,AZ,85054,Maricopa,Phoenix,33.67854,-111.941
4,Arizona,AZ,85085,Maricopa,Phoenix,33.75082,-112.091
4,Arizona,AZ,85086,Maricopa,Phoenix,33.81614,-112.12
4,Arizona,AZ,85087,Maricopa,Zcta 85087,33.9246,-112.127
4,Arizona,AZ,850HH,Maricopa,Zcta 850hh,#N/A,#N/A
4,Arizona,AZ,85201,Maricopa,Mesa,33.43355,-111.85
4,Arizona,AZ,85202,Maricopa,Mesa,33.37976,-111.875
4,Arizona,AZ,85203,Maricopa,Mesa,33.45036,-111.803
4,Arizona,AZ,85204,Maricopa,Mesa,33.39572,-111.787
4,Arizona,AZ,85205,Maricopa,Mesa,33.43242,-111.719
4,Arizona,AZ,85206,Maricopa,Mesa,33.3963,-111.717
4,Arizona,AZ,85207,Maricopa,Mesa,33.45459,-111.638
4,Arizona,AZ,85208,Maricopa,Mesa,33.40331,-111.628
4,Arizona,AZ,85210,Maricopa,Mesa,33.38973,-111.844
4,Arizona,AZ,85212,Maricopa,Mesa,33.32232,-111.635
4,Arizona,AZ,85213,Maricopa,Mesa,33.44873,-111.769
4,Arizona,AZ,85215,Maricopa,Mesa,33.5119,-111.579
4,Arizona,AZ,85219,Pinal,Gold canyon,#N/A,#N/A
4,Arizona,AZ,85220,Pinal,Apache junction,#N/A,#N/A
4,Arizona,AZ,85221,Pinal,Bapchule,#N/A,#N/A
4,Arizona,AZ,85222,Pinal,Eleven mile corn,#N/A,#N/A
4,Arizona,AZ,85223,Pinal,Arizona city,#N/A,#N/A
4,Arizona,AZ,85224,Maricopa,Chandler,33.32367,-111.878
4,Arizona,AZ,85225,Maricopa,Chandler,33.31745,-111.83
4,Arizona,AZ,85226,Maricopa,Chandler,33.25225,-112.01
4,Arizona,AZ,85228,Pinal,Coolidge,#N/A,#N/A
4,Arizona,AZ,85230,Pinal,Casa grande,#N/A,#N/A
4,Arizona,AZ,85231,Pinal,Eloy,#N/A,#N/A
4,Arizona,AZ,85232,Pinal,Florence,#N/A,#N/A
4,Arizona,AZ,85233,Maricopa,Gilbert,33.35351,-111.811
4,Arizona,AZ,85234,Maricopa,Gilbert,33.36167,-111.741
4,Arizona,AZ,85235,Gila,Hayden,#N/A,#N/A
4,Arizona,AZ,85236,Maricopa,Higley,#N/A,#N/A
4,Arizona,AZ,85237,Pinal,Kearny,#N/A,#N/A
4,Arizona,AZ,85239,Pinal,Mobile,#N/A,#N/A
4,Arizona,AZ,85241,Pinal,Picacho,#N/A,#N/A
4,Arizona,AZ,85242,Maricopa,Arizona boys ran,#N/A,#N/A
4,Arizona,AZ,85245,Pinal,Red rock,#N/A,#N/A
4,Arizona,AZ,85247,Pinal,Sacaton,#N/A,#N/A
4,Arizona,AZ,85248,Maricopa,Sun lakes,33.21496,-111.87
4,Arizona,AZ,85249,Maricopa,Chandler,33.22496,-111.796
4,Arizona,AZ,85250,Maricopa,Scottsdale,33.53445,-111.887
4,Arizona,AZ,85251,Maricopa,Scottsdale,33.49351,-111.919
4,Arizona,AZ,85253,Maricopa,Paradise valley,33.54483,-111.958
4,Arizona,AZ,85254,Maricopa,Scottsdale,33.61549,-111.952
4,Arizona,AZ,85255,Maricopa,Scottsdale,33.66819,-111.823
4,Arizona,AZ,85256,Maricopa,Scottsdale,33.50058,-111.844
4,Arizona,AZ,85257,Maricopa,Scottsdale,33.46196,-111.916
4,Arizona,AZ,85258,Maricopa,Scottsdale,33.5643,-111.896
4,Arizona,AZ,85259,Maricopa,Scottsdale,33.60111,-111.809
4,Arizona,AZ,85260,Maricopa,Scottsdale,33.61074,-111.891
4,Arizona,AZ,85262,Maricopa,Scottsdale,33.83503,-111.806
4,Arizona,AZ,85263,Maricopa,Rio verde,33.83957,-111.524
4,Arizona,AZ,85264,Maricopa,Fort mcdowell,33.63511,-111.532
4,Arizona,AZ,85268,Maricopa,Fountain hills,33.60609,-111.743
4,Arizona,AZ,85272,Pinal,Stanfield,#N/A,#N/A
4,Arizona,AZ,85273,Pinal,Superior,#N/A,#N/A
4,Arizona,AZ,85281,Maricopa,Tempe,33.42744,-111.934
4,Arizona,AZ,85282,Maricopa,Tempe,33.39398,-111.933
4,Arizona,AZ,85283,Maricopa,Tempe,33.36464,-111.932
4,Arizona,AZ,85284,Maricopa,Tempe,33.3383,-111.935
4,Arizona,AZ,85292,Pinal,Winkelman,#N/A,#N/A
4,Arizona,AZ,85296,Maricopa,Gilbert,33.33233,-111.75
4,Arizona,AZ,852HH,Maricopa,Zcta 852hh,#N/A,#N/A
4,Arizona,AZ,852XX,Pinal,Zcta 852xx,#N/A,#N/A
4,Arizona,AZ,85301,Maricopa,Glendale,33.53501,-112.182
4,Arizona,AZ,85302,Maricopa,Glendale,33.56809,-112.178
4,Arizona,AZ,85303,Maricopa,Glendale,33.5327,-112.221
4,Arizona,AZ,85304,Maricopa,Glendale,33.59974,-112.178
4,Arizona,AZ,85305,Maricopa,Glendale,33.53175,-112.256
4,Arizona,AZ,85306,Maricopa,Glendale,33.62456,-112.177
4,Arizona,AZ,85307,Maricopa,Luke afb,33.53983,-112.314
4,Arizona,AZ,85308,Maricopa,Glendale,33.66038,-112.185
4,Arizona,AZ,85309,Maricopa,Luke afb,33.53548,-112.377
4,Arizona,AZ,85310,Maricopa,Glendale,33.70765,-112.159
4,Arizona,AZ,85320,Maricopa,Aguila,33.91019,-113.21
4,Arizona,AZ,85321,Pima,Why,32.23775,-112.653
4,Arizona,AZ,85322,Maricopa,Arlington,33.15911,-112.872
4,Arizona,AZ,85323,Maricopa,Avondale,33.41923,-112.327
4,Arizona,AZ,85324,Yavapai,Rock springs,34.11919,-112.044
4,Arizona,AZ,85325,La Paz,Bouse,33.99235,-113.911
4,Arizona,AZ,85326,Maricopa,Buckeye,33.29376,-112.591
4,Arizona,AZ,85328,La Paz,Cibola,33.25263,-114.62
4,Arizona,AZ,85329,Maricopa,Cashion,#N/A,#N/A
4,Arizona,AZ,85331,Maricopa,Cave creek,33.87889,-111.913
4,Arizona,AZ,85332,Yavapai,Congress,34.18111,-112.905
4,Arizona,AZ,85333,Yuma,Dateland,33.0221,-113.284
4,Arizona,AZ,85334,La Paz,Ehrenberg,33.51657,-114.516
4,Arizona,AZ,85335,Maricopa,El mirage,33.59228,-112.328
4,Arizona,AZ,85336,Yuma,Gadsden,32.54876,-114.789
4,Arizona,AZ,85337,Maricopa,Gila bend,32.96403,-112.704
4,Arizona,AZ,85338,Maricopa,Goodyear,33.37298,-112.411
4,Arizona,AZ,85339,Maricopa,Laveen,33.23767,-112.159
4,Arizona,AZ,85340,Maricopa,Litchfield park,33.51583,-112.414
4,Arizona,AZ,85342,Maricopa,Morristown,33.94455,-112.451
4,Arizona,AZ,85344,La Paz,Empire landing,34.08065,-114.216
4,Arizona,AZ,85345,Maricopa,Peoria,33.57324,-112.246
4,Arizona,AZ,85346,La Paz,Quartzsite,33.63598,-114.146
4,Arizona,AZ,85347,Yuma,Roll,32.79751,-113.79
4,Arizona,AZ,85348,La Paz,Salome,33.71424,-113.721
4,Arizona,AZ,85349,Yuma,San luis,32.50882,-114.744
4,Arizona,AZ,85350,Yuma,Somerton,32.56122,-114.694
4,Arizona,AZ,85351,Maricopa,Sun city,33.60579,-112.284
4,Arizona,AZ,85353,Maricopa,Tolleson,33.41751,-112.277
4,Arizona,AZ,85354,Maricopa,Tonopah,33.43034,-113.046
4,Arizona,AZ,85355,Maricopa,Waddell,33.57612,-112.455
4,Arizona,AZ,85356,Yuma,Wellton,32.68901,-114.162
4,Arizona,AZ,85357,La Paz,Wenden,34.02067,-113.451
4,Arizona,AZ,85360,Mohave,Wikieup,34.73943,-113.464
4,Arizona,AZ,85361,Maricopa,Wittmann,33.76412,-112.615
4,Arizona,AZ,85362,Yavapai,Yarnell,34.27992,-112.835
4,Arizona,AZ,85363,Maricopa,Youngtown,33.58497,-112.305
4,Arizona,AZ,85364,Yuma,Yuma,32.70226,-114.658
4,Arizona,AZ,85365,Yuma,Yuma proving gro,33.09644,-114.125
4,Arizona,AZ,85367,Yuma,Yuma,32.67172,-114.396
4,Arizona,AZ,85373,Maricopa,Sun city,33.67142,-112.3
4,Arizona,AZ,85374,Maricopa,Surprise,33.641,-112.378
4,Arizona,AZ,85375,Maricopa,Sun city west,33.68581,-112.366
4,Arizona,AZ,85379,Maricopa,Zcta 85379,33.60309,-112.369
4,Arizona,AZ,85381,Maricopa,Peoria,33.60917,-112.23
4,Arizona,AZ,85382,Maricopa,Peoria,33.65429,-112.249
4,Arizona,AZ,85390,Maricopa,Wickenburg,33.90362,-112.876
4,Arizona,AZ,853HH,La Paz,Zcta 853hh,#N/A,#N/A
4,Arizona,AZ,853XX,La Paz,Zcta 853xx,#N/A,#N/A
4,Arizona,AZ,85501,Gila,Globe,33.559,-110.769
4,Arizona,AZ,85530,Graham,Bylas,33.06517,-110.2
4,Arizona,AZ,85531,Graham,Central,32.88411,-109.79
4,Arizona,AZ,85533,Greenlee,Clifton,33.35394,-109.406
4,Arizona,AZ,85534,Greenlee,Franklin,32.75378,-109.142
4,Arizona,AZ,85535,Graham,Eden,32.98647,-109.913
4,Arizona,AZ,85536,Graham,Fort thomas,33.12065,-110.016
4,Arizona,AZ,85539,Gila,Miami,33.34064,-110.897
4,Arizona,AZ,85540,Greenlee,Morenci,33.00289,-109.382
4,Arizona,AZ,85541,Gila,Payson,34.19454,-111.304
4,Arizona,AZ,85542,Graham,Peridot,33.32468,-110.311
4,Arizona,AZ,85543,Graham,Pima,32.97857,-109.989
4,Arizona,AZ,85544,Gila,Strawberry,34.30386,-111.561
4,Arizona,AZ,85545,Gila,Roosevelt,33.56498,-111.141
4,Arizona,AZ,85546,Graham,Safford,32.81375,-109.355
4,Arizona,AZ,85550,Gila,San carlos,33.57965,-110.452
4,Arizona,AZ,85552,Graham,Thatcher,32.81995,-109.771
4,Arizona,AZ,85553,Gila,Tonto basin,33.84722,-111.187
4,Arizona,AZ,85554,Gila,Young,33.97665,-110.96
4,Arizona,AZ,855HH,Gila,Zcta 855hh,#N/A,#N/A
4,Arizona,AZ,855XX,Graham,Zcta 855xx,#N/A,#N/A
4,Arizona,AZ,85601,Pima,Arivaca,31.58868,-111.315
4,Arizona,AZ,85602,Cochise,Benson,32.1675,-110.412
4,Arizona,AZ,85603,Cochise,Bisbee,31.43267,-109.919
4,Arizona,AZ,85605,Cochise,Bowie,32.30281,-109.482
4,Arizona,AZ,85606,Cochise,Cochise,32.04255,-109.899
4,Arizona,AZ,85607,Cochise,Douglas,31.52078,-109.379
4,Arizona,AZ,85608,Cochise,Douglas,31.45691,-109.581
4,Arizona,AZ,85609,Cochise,Dragoon,32.0693,-110.097
4,Arizona,AZ,85610,Cochise,Elfrida,31.72782,-109.734
4,Arizona,AZ,85611,Santa Cruz,Elgin,31.66517,-110.51
4,Arizona,AZ,85613,Cochise,Fort huachuca,31.56787,-110.377
4,Arizona,AZ,85614,Pima,Green valley,31.8143,-110.919
4,Arizona,AZ,85615,Cochise,Hereford,31.40263,-110.212
4,Arizona,AZ,85616,Cochise,Huachuca city,31.70199,-110.323
4,Arizona,AZ,85617,Cochise,Mc neal,31.51962,-109.709
4,Arizona,AZ,85618,Pinal,Mammoth,32.71971,-110.538
4,Arizona,AZ,85619,Pima,Mount lemmon,32.40753,-110.733
4,Arizona,AZ,85621,Santa Cruz,Nogales,31.38798,-110.912
4,Arizona,AZ,85623,Pinal,Oracle,32.70625,-110.805
4,Arizona,AZ,85624,Santa Cruz,Patagonia,31.50497,-110.693
4,Arizona,AZ,85625,Cochise,Pearce,31.88707,-109.615
4,Arizona,AZ,85627,Cochise,Pomerene,32.00779,-110.236
4,Arizona,AZ,85629,Pima,Sahuarita,31.91785,-111.019
4,Arizona,AZ,85630,Cochise,Saint david,31.88657,-110.181
4,Arizona,AZ,85631,Pinal,San manuel,32.59091,-110.551
4,Arizona,AZ,85632,Cochise,Portal,32.09359,-109.133
4,Arizona,AZ,85633,Pima,Sasabe,31.6129,-111.503
4,Arizona,AZ,85634,Pima,Pisinemo,32.0345,-111.994
4,Arizona,AZ,85635,Cochise,Sierra vista,31.57101,-110.17
4,Arizona,AZ,85637,Santa Cruz,Sonoita,31.71947,-110.691
4,Arizona,AZ,85638,Cochise,Tombstone,31.71617,-110.052
4,Arizona,AZ,85639,Pima,Topawa,#N/A,#N/A
4,Arizona,AZ,85640,Santa Cruz,Amado,31.55723,-111.048
4,Arizona,AZ,85641,Pima,Vail,32.04905,-110.623
4,Arizona,AZ,85643,Cochise,Willcox,32.40725,-109.965
4,Arizona,AZ,85645,Pima,Amado,31.68628,-111.161
4,Arizona,AZ,85646,Santa Cruz,Tubac,31.64732,-110.941
4,Arizona,AZ,85648,Santa Cruz,Rio rico,31.49044,-111.038
4,Arizona,AZ,85650,Cochise,Zcta 85650,31.50071,-110.202
4,Arizona,AZ,85653,Pima,Marana,32.39879,-111.386
4,Arizona,AZ,85654,Pima,Rillito,32.41526,-111.154
4,Arizona,AZ,856HH,Cochise,Zcta 856hh,#N/A,#N/A
4,Arizona,AZ,85701,Pima,Tucson,32.21696,-110.971
4,Arizona,AZ,85704,Pima,Casas adobes,32.33942,-110.985
4,Arizona,AZ,85705,Pima,Tucson,32.27133,-110.994
4,Arizona,AZ,85706,Pima,Tucson,32.14762,-110.933
4,Arizona,AZ,85708,Pima,Tucson,32.18192,-110.866
4,Arizona,AZ,85710,Pima,Tucson,32.21414,-110.824
4,Arizona,AZ,85711,Pima,Tucson,32.21524,-110.883
4,Arizona,AZ,85712,Pima,Tucson,32.25289,-110.887
4,Arizona,AZ,85713,Pima,Tucson,32.19457,-111.015
4,Arizona,AZ,85714,Pima,Tucson,32.1674,-110.951
4,Arizona,AZ,85715,Pima,Tucson,32.24672,-110.836
4,Arizona,AZ,85716,Pima,Tucson,32.24154,-110.923
4,Arizona,AZ,85718,Pima,Tucson,32.3333,-110.917
4,Arizona,AZ,85719,Pima,Tucson,32.24672,-110.949
4,Arizona,AZ,85730,Pima,Tucson,32.18154,-110.747
4,Arizona,AZ,85735,Pima,Tucson,32.09411,-111.349
4,Arizona,AZ,85736,Pima,Tucson,31.90984,-111.364
4,Arizona,AZ,85737,Pima,Oro valley,32.41462,-110.947
4,Arizona,AZ,85739,Pima,Zcta 85739,32.62107,-110.99
4,Arizona,AZ,85741,Pima,Tucson,32.33529,-111.042
4,Arizona,AZ,85742,Pima,Tucson,32.39372,-111.065
4,Arizona,AZ,85743,Pima,Tucson,32.30227,-111.182
4,Arizona,AZ,85745,Pima,Tucson,32.25391,-111.08
4,Arizona,AZ,85746,Pima,Tucson,32.09161,-111.044
4,Arizona,AZ,85747,Pima,Tucson,32.09497,-110.765
4,Arizona,AZ,85748,Pima,Tucson,32.21893,-110.752
4,Arizona,AZ,85749,Pima,Tucson,32.28958,-110.734
4,Arizona,AZ,85750,Pima,Tucson,32.30013,-110.836
4,Arizona,AZ,85901,Navajo,Show low,34.31481,-110.024
4,Arizona,AZ,85911,Navajo,Cibeque,34.17305,-110.367
4,Arizona,AZ,85920,Apache,Alpine,33.86192,-109.177
4,Arizona,AZ,85922,Greenlee,Blue,33.46757,-109.151
4,Arizona,AZ,85923,Navajo,Clay springs,34.32496,-110.341
4,Arizona,AZ,85924,Apache,Concho,34.56662,-109.672
4,Arizona,AZ,85925,Apache,Eagar,34.08811,-109.323
4,Arizona,AZ,85926,Navajo,Fort apache,33.76925,-109.979
4,Arizona,AZ,85927,Apache,Greer,34.00643,-109.464
4,Arizona,AZ,85928,Navajo,Heber,34.54536,-110.551
4,Arizona,AZ,85929,Navajo,Lakeside,34.18468,-109.94
4,Arizona,AZ,85930,Apache,Mc nary,34.04732,-109.721
4,Arizona,AZ,85931,Coconino,Forest lakes,34.37001,-110.916
4,Arizona,AZ,85932,Apache,Nutrioso,33.95334,-109.213
4,Arizona,AZ,85933,Navajo,Overgaard,34.35709,-110.509
4,Arizona,AZ,85934,Navajo,Pinedale,34.30025,-110.246
4,Arizona,AZ,85935,Navajo,Pinetop,34.11993,-109.897
4,Arizona,AZ,85936,Apache,Saint johns,34.65268,-109.269
4,Arizona,AZ,85937,Navajo,Snowflake,34.5737,-110.064
4,Arizona,AZ,85938,Apache,Springerville,34.1493,-109.337
4,Arizona,AZ,85939,Navajo,Taylor,34.43143,-110.085
4,Arizona,AZ,85940,Apache,Vernon,34.25166,-109.682
4,Arizona,AZ,85941,Navajo,Whiteriver,33.82139,-109.97
4,Arizona,AZ,85942,Navajo,Woodruff,34.73571,-109.955
4,Arizona,AZ,86001,Coconino,Flagstaff,35.28766,-111.639
4,Arizona,AZ,86004,Coconino,Flagstaff,35.38094,-111.373
4,Arizona,AZ,86015,Coconino,Bellemont,35.23157,-111.84
4,Arizona,AZ,86016,Coconino,Gray mountain,35.75246,-111.641
4,Arizona,AZ,86017,Coconino,Munds park,34.88906,-111.626
4,Arizona,AZ,86018,Coconino,Parks,35.18871,-111.916
4,Arizona,AZ,86020,Coconino,Cameron,35.9928,-111.498
4,Arizona,AZ,86021,Mohave,Colorado city,36.97228,-113.024
4,Arizona,AZ,86022,Coconino,Fredonia,36.85632,-112.837
4,Arizona,AZ,86023,Coconino,Grand canyon,36.03313,-112.023
4,Arizona,AZ,86024,Coconino,Happy jack,34.66886,-111.312
4,Arizona,AZ,86025,Navajo,Holbrook,34.93078,-110.105
4,Arizona,AZ,86030,Navajo,Hotevilla,35.96849,-110.73
4,Arizona,AZ,86031,Navajo,Indian wells,35.3866,-110.052
4,Arizona,AZ,86032,Navajo,Joseph city,35.07961,-110.284
4,Arizona,AZ,86033,Navajo,Kayenta,36.67578,-110.228
4,Arizona,AZ,86034,Navajo,Keams canyon,35.7942,-110.126
4,Arizona,AZ,86035,Coconino,Leupp,35.45672,-110.944
4,Arizona,AZ,86036,Coconino,Marble canyon,36.73825,-111.823
4,Arizona,AZ,86039,Navajo,Kykotsmovi villa,36.0558,-110.525
4,Arizona,AZ,86040,Coconino,Greenehaven,36.7055,-111.428
4,Arizona,AZ,86042,Navajo,Polacca,35.86176,-110.384
4,Arizona,AZ,86043,Navajo,Second mesa,35.8097,-110.533
4,Arizona,AZ,86044,Coconino,Tonalea,36.69319,-110.81
4,Arizona,AZ,86045,Coconino,Tuba city,36.09645,-111.116
4,Arizona,AZ,86046,Coconino,Williams,35.41592,-112.125
4,Arizona,AZ,86047,Navajo,Winslow,35.11344,-110.671
4,Arizona,AZ,86052,Coconino,North rim,36.14723,-112.03
4,Arizona,AZ,86053,Coconino,Kaibito,36.73505,-111.055
4,Arizona,AZ,86054,Navajo,Shonto,36.72464,-110.612
4,Arizona,AZ,860HH,Coconino,Zcta 860hh,#N/A,#N/A
4,Arizona,AZ,860XX,Coconino,Zcta 860xx,#N/A,#N/A
4,Arizona,AZ,86301,Yavapai,Prescott,34.58702,-112.429
4,Arizona,AZ,86303,Yavapai,Groom creek,34.48241,-112.45
4,Arizona,AZ,86305,Yavapai,Zcta 86305,34.86433,-112.912
4,Arizona,AZ,86314,Yavapai,Prescott valley,34.62599,-112.306
4,Arizona,AZ,86320,Yavapai,Ash fork,35.34613,-112.645
4,Arizona,AZ,86321,Yavapai,Bagdad,34.49283,-113.103
4,Arizona,AZ,86322,Yavapai,Camp verde,34.50028,-111.801
4,Arizona,AZ,86323,Yavapai,Chino valley,34.77835,-112.407
4,Arizona,AZ,86324,Yavapai,Clarkdale,34.85744,-112.12
4,Arizona,AZ,86325,Yavapai,Cornville,34.73456,-111.898
4,Arizona,AZ,86326,Yavapai,Cottonwood,34.70003,-112.024
4,Arizona,AZ,86327,Yavapai,Dewey,34.57132,-112.105
4,Arizona,AZ,86331,Yavapai,Jerome,34.72684,-112.144
4,Arizona,AZ,86332,Yavapai,Kirkland,34.32054,-112.633
4,Arizona,AZ,86333,Yavapai,Mayer,34.32304,-112.082
4,Arizona,AZ,86334,Yavapai,Paulden,34.94904,-112.545
4,Arizona,AZ,86335,Yavapai,Rimrock,34.69472,-111.673
4,Arizona,AZ,86336,Yavapai,Sedona,34.90989,-111.867
4,Arizona,AZ,86337,Yavapai,Seligman,35.35979,-113.031
4,Arizona,AZ,86338,Yavapai,Skull valley,34.58175,-112.754
4,Arizona,AZ,86343,Yavapai,Crown king,34.17698,-112.3
4,Arizona,AZ,86351,Yavapai,Sedona,34.77845,-111.785
4,Arizona,AZ,86401,Mohave,Kingman,35.13172,-113.704
4,Arizona,AZ,86403,Mohave,Desert hills,34.48026,-114.349
4,Arizona,AZ,86404,Mohave,Lake havasu city,34.59005,-114.308
4,Arizona,AZ,86406,Mohave,Lake havasu city,34.42324,-114.11
4,Arizona,AZ,86413,Mohave,Golden valley,35.21054,-114.346
4,Arizona,AZ,86426,Mohave,Bullhead city,35.00777,-114.569
4,Arizona,AZ,86429,Mohave,Bullhead city,35.16363,-114.485
4,Arizona,AZ,86430,Mohave,Bullhead city,#N/A,#N/A
4,Arizona,AZ,86431,Mohave,Chloride,35.41557,-114.22
4,Arizona,AZ,86432,Mohave,Littlefield,36.36663,-113.447
4,Arizona,AZ,86433,Mohave,Oatman,34.91756,-114.349
4,Arizona,AZ,86434,Mohave,Peach springs,35.67665,-113.621
4,Arizona,AZ,86435,Coconino,Supai,36.04417,-112.904
4,Arizona,AZ,86436,Mohave,Topock,34.75709,-114.385
4,Arizona,AZ,86437,Mohave,Valentine,35.37885,-113.614
4,Arizona,AZ,86438,Mohave,Yucca,34.54893,-113.805
4,Arizona,AZ,86440,Mohave,Mohave valley,34.89668,-114.525
4,Arizona,AZ,86441,Mohave,Dolan springs,35.57144,-114.372
4,Arizona,AZ,86442,Mohave,Bullhead city,35.08961,-114.561
4,Arizona,AZ,86444,Mohave,Meadview,35.89704,-114.047
4,Arizona,AZ,864HH,Mohave,Zcta 864hh,#N/A,#N/A
4,Arizona,AZ,864XX,Mohave,Zcta 864xx,#N/A,#N/A
4,Arizona,AZ,86502,Apache,Chambers,35.21795,-109.592
4,Arizona,AZ,86503,Apache,Chinle,36.15343,-109.685
4,Arizona,AZ,86504,Apache,Fort defiance,35.93227,-109.135
4,Arizona,AZ,86505,Apache,Ganado,35.62375,-109.707
4,Arizona,AZ,86506,Apache,Houck,35.35805,-109.22
4,Arizona,AZ,86507,Apache,Lukachukai,36.41045,-109.264
4,Arizona,AZ,86508,Apache,Lupton,35.32949,-109.096
4,Arizona,AZ,86510,Navajo,Pinon,36.25798,-110.22
4,Arizona,AZ,86511,Apache,Saint michaels,35.5501,-109.154
4,Arizona,AZ,86512,Apache,Sanders,35.09507,-109.243
4,Arizona,AZ,86514,Apache,Teec nos pos,36.88026,-109.333
4,Arizona,AZ,86515,Apache,Window rock,35.67925,-108.954
4,Arizona,AZ,86520,Apache,Blue gap,36.10991,-109.936
4,Arizona,AZ,86535,Apache,Dennehotso,36.79403,-109.855
4,Arizona,AZ,86538,Apache,Many farms,36.40222,-109.596
4,Arizona,AZ,86540,Apache,Nazlini,35.94144,-109.444
4,Arizona,AZ,86544,Apache,Red valley,36.61948,-109.164
4,Arizona,AZ,86545,Apache,Rock point,36.71141,-109.607
4,Arizona,AZ,86547,Apache,Round rock,36.51253,-109.494
4,Arizona,AZ,86549,Apache,Sawmill,#N/A,#N/A
4,Arizona,AZ,86556,Apache,Tsaile,36.28841,-109.255
4,Arizona,AZ,87328,Apache,,35.97874,-108.981
4,Arizona,AZ,89024,Mohave,,#N/A,#N/A
5,Arkansas,AR,38041,Mississippi,,35.65929,-89.7046
5,Arkansas,AR,38063,Mississippi,,35.76406,-89.6405
5,Arkansas,AR,380HH,Mississippi,,#N/A,#N/A
5,Arkansas,AR,65733,Marion,,36.52712,-92.8494
5,Arkansas,AR,65761,Marion,,36.57645,-92.725
5,Arkansas,AR,657HH,Marion,,#N/A,#N/A
5,Arkansas,AR,71601,Jefferson,North cedar,34.17938,-91.8925
5,Arkansas,AR,71602,Jefferson,Dollarway,34.26626,-92.1454
5,Arkansas,AR,71603,Jefferson,Pine bluff,34.12108,-92.0881
5,Arkansas,AR,71630,Desha,Arkansas city,33.6203,-91.2071
5,Arkansas,AR,71631,Bradley,Banks,33.58003,-92.265
5,Arkansas,AR,71635,Ashley,North,33.13105,-91.9965
5,Arkansas,AR,71638,Chicot,Dermott,33.52094,-91.4847
5,Arkansas,AR,71639,Desha,Dumas,33.90148,-91.5204
5,Arkansas,AR,71640,Chicot,Eudora,33.10122,-91.2781
5,Arkansas,AR,71642,Ashley,Fountain hill,33.3874,-91.8875
5,Arkansas,AR,71643,Lincoln,Gould,34.01689,-91.5765
5,Arkansas,AR,71644,Lincoln,Tamo,34.09832,-91.7047
5,Arkansas,AR,71646,Ashley,Hamburg,33.23554,-91.7876
5,Arkansas,AR,71647,Bradley,Ingalls,33.36436,-92.114
5,Arkansas,AR,71651,Bradley,Jersey,33.32692,-92.2958
5,Arkansas,AR,71652,Cleveland,Kingsland,33.93264,-92.333
5,Arkansas,AR,71653,Chicot,Lake village,33.34337,-91.2518
5,Arkansas,AR,71654,Desha,Mc gehee,33.62109,-91.3711
5,Arkansas,AR,71655,Drew,Monticello,33.6398,-91.7496
5,Arkansas,AR,71656,Drew,University of ar,#N/A,#N/A
5,Arkansas,AR,71658,Ashley,Montrose,33.31597,-91.5621
5,Arkansas,AR,71659,Jefferson,Moscow,34.14357,-91.7759
5,Arkansas,AR,71660,Cleveland,New edinburg,33.75874,-92.2027
5,Arkansas,AR,71661,Ashley,Parkdale,33.15103,-91.5502
5,Arkansas,AR,71663,Ashley,Portland,33.22644,-91.4295
5,Arkansas,AR,71665,Cleveland,Rison,33.93026,-92.1095
5,Arkansas,AR,71666,Desha,Rohwer,33.76104,-91.2822
5,Arkansas,AR,71667,Lincoln,Star city,33.92449,-91.8371
5,Arkansas,AR,71670,Desha,Reed,33.71609,-91.3909
5,Arkansas,AR,71671,Bradley,Warren,33.60199,-92.096
5,Arkansas,AR,71674,Desha,Watson,33.837,-91.1752
5,Arkansas,AR,71675,Drew,Wilmar,33.59175,-91.9382
5,Arkansas,AR,71676,Ashley,Wilmot,33.05218,-91.5676
5,Arkansas,AR,71677,Drew,Winchester,33.76188,-91.4806
5,Arkansas,AR,716HH,Ashley,Zcta 716hh,#N/A,#N/A
5,Arkansas,AR,716XX,Desha,Zcta 716xx,#N/A,#N/A
5,Arkansas,AR,71701,Ouachita,East camden,33.58646,-92.8197
5,Arkansas,AR,71720,Ouachita,Bearden,33.78621,-92.6547
5,Arkansas,AR,71722,Nevada,Bluff city,33.72177,-93.1747
5,Arkansas,AR,71724,Union,Calion,33.32778,-92.5357
5,Arkansas,AR,71725,Dallas,Carthage,34.04963,-92.5579
5,Arkansas,AR,71726,Ouachita,Reader,33.67234,-92.9861
5,Arkansas,AR,71730,Union,El dorado,33.19884,-92.6271
5,Arkansas,AR,71740,Columbia,Emerson,33.07687,-93.1674
5,Arkansas,AR,71742,Dallas,Fordyce,33.85267,-92.4489
5,Arkansas,AR,71743,Clark,Gurdon,33.88933,-93.0978
5,Arkansas,AR,71744,Calhoun,Hampton,33.4968,-92.4802
5,Arkansas,AR,71745,Calhoun,Harrell,33.50074,-92.3961
5,Arkansas,AR,71747,Union,Huttig,33.06073,-92.2029
5,Arkansas,AR,71749,Union,Junction city,33.07188,-92.8186
5,Arkansas,AR,71751,Ouachita,Louann,33.41148,-92.7603
5,Arkansas,AR,71752,Columbia,Mc neil,33.39142,-93.1918
5,Arkansas,AR,71753,Columbia,Magnolia,33.22568,-93.1847
5,Arkansas,AR,71758,Union,Mount holly,33.30929,-92.9149
5,Arkansas,AR,71759,Union,Norphlet,33.32099,-92.6442
5,Arkansas,AR,71762,Union,Smackover,33.34292,-92.7684
5,Arkansas,AR,71763,Dallas,Manning,33.91646,-92.8053
5,Arkansas,AR,71764,Ouachita,Stephens,33.43194,-93.049
5,Arkansas,AR,71765,Union,Strong,33.14188,-92.3318
5,Arkansas,AR,71766,Calhoun,Thornton,33.72513,-92.5067
5,Arkansas,AR,71770,Columbia,Waldo,33.38809,-93.3174
5,Arkansas,AR,717HH,Calhoun,Zcta 717hh,#N/A,#N/A
5,Arkansas,AR,717XX,Calhoun,Zcta 717xx,#N/A,#N/A
5,Arkansas,AR,71801,Hempstead,Perrytown,33.64589,-93.5989
5,Arkansas,AR,71820,Little River,Alleene,33.79941,-94.2726
5,Arkansas,AR,71822,Little River,Ashdown,33.6631,-94.1563
5,Arkansas,AR,71823,Sevier,Ben lomond,33.82933,-94.1234
5,Arkansas,AR,71825,Hempstead,Blevins,33.87778,-93.5565
5,Arkansas,AR,71826,Lafayette,Bradley,33.09254,-93.7232
5,Arkansas,AR,71827,Lafayette,Buckner,33.42519,-93.3965
5,Arkansas,AR,71832,Sevier,De queen,34.03692,-94.3511
5,Arkansas,AR,71833,Howard,Dierks,34.14193,-94.0413
5,Arkansas,AR,71834,Miller,Doddridge,33.11484,-93.9578
5,Arkansas,AR,71835,Nevada,Emmet,33.64401,-93.4292
5,Arkansas,AR,71836,Little River,Foreman,33.71499,-94.3977
5,Arkansas,AR,71837,Miller,Fouke,33.2549,-93.8453
5,Arkansas,AR,71838,Hempstead,Fulton,33.6525,-93.8123
5,Arkansas,AR,71839,Miller,Garland city,33.33488,-93.729
5,Arkansas,AR,71841,Sevier,Gillham,34.162,-94.3395
5,Arkansas,AR,71842,Sevier,Horatio,33.90288,-94.2853
5,Arkansas,AR,71845,Lafayette,Lewisville,33.3156,-93.644
5,Arkansas,AR,71846,Sevier,Lockesburg,33.94374,-94.1277
5,Arkansas,AR,71847,Hempstead,Mc caskill,33.92625,-93.6368
5,Arkansas,AR,71851,Howard,Mineral springs,33.85666,-93.9425
5,Arkansas,AR,71852,Howard,Nashville,33.99768,-93.8556
5,Arkansas,AR,71853,Little River,Ogden,33.5938,-93.938
5,Arkansas,AR,71854,Miller,Zcta 71854,33.45142,-93.8818
5,Arkansas,AR,71855,Hempstead,Ozan,33.86515,-93.7513
5,Arkansas,AR,71857,Nevada,Prescott,33.80147,-93.3376
5,Arkansas,AR,71858,Nevada,Rosston,33.58514,-93.2638
5,Arkansas,AR,71859,Howard,Saratoga,33.74444,-93.9102
5,Arkansas,AR,71860,Lafayette,Stamps,33.29022,-93.4897
5,Arkansas,AR,71861,Columbia,Taylor,33.10067,-93.5
5,Arkansas,AR,71862,Hempstead,Washington,33.77965,-93.7281
5,Arkansas,AR,71865,Little River,Wilton,33.741,-94.1499
5,Arkansas,AR,71866,Little River,Winthrop,33.8775,-94.4065
5,Arkansas,AR,718HH,Hempstead,Zcta 718hh,#N/A,#N/A
5,Arkansas,AR,71901,Garland,Lake catherine,34.52645,-92.9741
5,Arkansas,AR,71909,Garland,Hot springs vill,34.64369,-92.9976
5,Arkansas,AR,71913,Garland,Lake hamilton,34.44924,-93.0943
5,Arkansas,AR,71921,Clark,Amity,34.24365,-93.3909
5,Arkansas,AR,71922,Pike,Antoine,34.02321,-93.4133
5,Arkansas,AR,71923,Clark,Arkadelphia,34.08509,-93.0453
5,Arkansas,AR,71929,Hot Spring,Bismarck,34.30374,-93.1596
5,Arkansas,AR,71933,Hot Spring,Bonnerdale,34.43931,-93.3428
5,Arkansas,AR,71935,Montgomery,Caddo gap,34.39496,-93.7514
5,Arkansas,AR,71937,Polk,Cove,34.39937,-94.3903
5,Arkansas,AR,71940,Pike,Delight,34.02335,-93.5204
5,Arkansas,AR,71941,Hot Spring,Donaldson,34.24725,-92.9487
5,Arkansas,AR,71943,Pike,Glenwood,34.34032,-93.6073
5,Arkansas,AR,71944,Polk,Grannis,34.24282,-94.3328
5,Arkansas,AR,71945,Polk,Hatfield,34.48515,-94.3396
5,Arkansas,AR,71949,Garland,Jessieville,34.69909,-93.2208
5,Arkansas,AR,71950,Pike,Kirby,34.25652,-93.7178
5,Arkansas,AR,71952,Pike,Langley,34.27651,-93.8214
5,Arkansas,AR,71953,Polk,Mena,34.60802,-94.1972
5,Arkansas,AR,71956,Garland,Buckville,34.59864,-93.1534
5,Arkansas,AR,71957,Montgomery,Mount ida,34.56502,-93.5747
5,Arkansas,AR,71958,Pike,Murfreesboro,34.12335,-93.6646
5,Arkansas,AR,71959,Pike,Newhope,34.24317,-93.9316
5,Arkansas,AR,71960,Montgomery,Norman,34.49034,-93.7114
5,Arkansas,AR,71961,Montgomery,Oden,34.60032,-93.8384
5,Arkansas,AR,71962,Clark,Okolona,34.0362,-93.3227
5,Arkansas,AR,71964,Garland,Pearcy,34.42413,-93.2407
5,Arkansas,AR,71965,Montgomery,Pencil bluff,34.67049,-93.7466
5,Arkansas,AR,71968,Garland,Royal,34.52417,-93.2905
5,Arkansas,AR,71969,Montgomery,Sims,34.66924,-93.6292
5,Arkansas,AR,71970,Montgomery,Story,34.66893,-93.4892
5,Arkansas,AR,71971,Howard,Umpire,34.30402,-94.0343
5,Arkansas,AR,71972,Polk,Vandervoort,34.38289,-94.2769
5,Arkansas,AR,71973,Polk,Wickes,34.30188,-94.319
5,Arkansas,AR,719HH,Clark,Zcta 719hh,#N/A,#N/A
5,Arkansas,AR,72001,Perry,Adona,35.05835,-92.8858
5,Arkansas,AR,72002,Saline,Alexander,34.66079,-92.5275
5,Arkansas,AR,72003,Arkansas,Almyra,34.38253,-91.3903
5,Arkansas,AR,72004,Jefferson,Altheimer,34.28279,-91.7793
5,Arkansas,AR,72005,Jackson,Amagon,35.53719,-91.0704
5,Arkansas,AR,72006,Woodruff,Augusta,35.24387,-91.3596
5,Arkansas,AR,72007,Lonoke,Austin,35.0019,-91.9832
5,Arkansas,AR,72010,White,Bald knob,35.3202,-91.5376
5,Arkansas,AR,72011,Saline,Bauxite,34.50062,-92.4659
5,Arkansas,AR,72012,White,Beebe,35.09484,-91.9076
5,Arkansas,AR,72013,Van Buren,Bee branch,35.45534,-92.3685
5,Arkansas,AR,72014,Jackson,Beedeville,35.43252,-91.1118
5,Arkansas,AR,72015,Saline,Benton,34.4859,-92.5851
5,Arkansas,AR,72016,Perry,Bigelow,34.97082,-92.6329
5,Arkansas,AR,72017,Prairie,Biscoe,34.90025,-91.4164
5,Arkansas,AR,72020,White,Bradford,35.47203,-91.4701
5,Arkansas,AR,72021,Monroe,Brinkley,34.84554,-91.2175
5,Arkansas,AR,72022,Saline,Bryant,34.60746,-92.4885
5,Arkansas,AR,72023,Lonoke,Cabot,34.96427,-92.0637
5,Arkansas,AR,72024,Lonoke,Carlisle,34.76085,-91.7419
5,Arkansas,AR,72025,Perry,Casa,35.05233,-92.9994
5,Arkansas,AR,72026,Arkansas,Casscoe,34.50523,-91.295
5,Arkansas,AR,72027,Conway,Center ridge,35.37382,-92.5729
5,Arkansas,AR,72029,Monroe,Clarendon,34.70712,-91.2386
5,Arkansas,AR,72030,Conway,Cleveland,35.42709,-92.6759
5,Arkansas,AR,72031,Van Buren,Clinton,35.63366,-92.5316
5,Arkansas,AR,72032,Faulkner,Conway,35.06556,-92.3627
5,Arkansas,AR,72036,Woodruff,Cotton plant,35.01112,-91.2731
5,Arkansas,AR,72038,Arkansas,Crocketts bluff,34.45265,-91.2381
5,Arkansas,AR,72039,Faulkner,Twin groves,35.35607,-92.3973
5,Arkansas,AR,72040,Prairie,Des arc,34.96968,-91.5328
5,Arkansas,AR,72041,Prairie,De valls bluff,34.72179,-91.4674
5,Arkansas,AR,72042,Arkansas,De witt,34.26058,-91.3245
5,Arkansas,AR,72043,Jackson,Diaz,#N/A,#N/A
5,Arkansas,AR,72044,Cleburne,Edgemont,35.66003,-92.165
5,Arkansas,AR,72045,White,El paso,35.12984,-92.0323
5,Arkansas,AR,72046,Lonoke,England,34.55846,-91.9508
5,Arkansas,AR,72047,Faulkner,Enola,35.22378,-92.2107
5,Arkansas,AR,72048,Arkansas,Ethel,34.22898,-91.1453
5,Arkansas,AR,72051,Stone,Fox,35.78605,-92.321
5,Arkansas,AR,72053,Pulaski,College station,#N/A,#N/A
5,Arkansas,AR,72055,Arkansas,Gillett,34.09869,-91.3542
5,Arkansas,AR,72057,Grant,Grapevine,34.14094,-92.3104
5,Arkansas,AR,72058,Faulkner,Greenbrier,35.24592,-92.3742
5,Arkansas,AR,72060,White,Griffithville,35.07371,-91.599
5,Arkansas,AR,72061,Faulkner,Guy,35.32276,-92.3
5,Arkansas,AR,72063,Conway,Hattieville,35.31807,-92.7901
5,Arkansas,AR,72064,Prairie,Hazen,34.79159,-91.6087
5,Arkansas,AR,72065,Saline,Hensley,34.53463,-92.2864
5,Arkansas,AR,72067,Cleburne,Greers ferry,35.56337,-92.1554
5,Arkansas,AR,72068,White,Higginson,35.19031,-91.7108
5,Arkansas,AR,72069,Monroe,Holly grove,34.53214,-91.1378
5,Arkansas,AR,72070,Perry,Houston,35.00812,-92.707
5,Arkansas,AR,72072,Lonoke,Humnoke,34.52396,-91.7395
5,Arkansas,AR,72073,Arkansas,Humphrey,34.38114,-91.6691
5,Arkansas,AR,72074,Woodruff,Hunter,35.07827,-91.0953
5,Arkansas,AR,72075,Jackson,Jacksonport,#N/A,#N/A
5,Arkansas,AR,72076,Pulaski,Gravel ridge,34.91618,-92.1415
5,Arkansas,AR,72079,Jefferson,Jefferson,34.39055,-92.1735
5,Arkansas,AR,72080,Van Buren,Jerusalem,35.438,-92.8345
5,Arkansas,AR,72081,White,Judsonia,35.38201,-91.6704
5,Arkansas,AR,72082,White,Kensett,35.23283,-91.6736
5,Arkansas,AR,72083,Lonoke,Keo,34.59353,-92.0087
5,Arkansas,AR,72084,Grant,Leola,34.14396,-92.6675
5,Arkansas,AR,72085,White,Letona,35.36396,-91.8291
5,Arkansas,AR,72086,Lonoke,Lonoke,34.80702,-91.9077
5,Arkansas,AR,72087,Garland,Lonsdale,34.59673,-92.8262
5,Arkansas,AR,72088,Van Buren,Fairfield bay,35.59519,-92.2678
5,Arkansas,AR,72099,Pulaski,Jacksonville,34.89928,-92.1415
5,Arkansas,AR,720HH,Arkansas,Zcta 720hh,#N/A,#N/A
5,Arkansas,AR,720XX,Monroe,Zcta 720xx,#N/A,#N/A
5,Arkansas,AR,72101,Woodruff,Mc crory,35.24535,-91.1615
5,Arkansas,AR,72102,White,Mc rae,35.14716,-91.83
5,Arkansas,AR,72103,Saline,Shannon hills,34.59049,-92.39
5,Arkansas,AR,72104,Hot Spring,Malvern,34.34204,-92.8218
5,Arkansas,AR,72105,Hot Spring,Jones mills,#N/A,#N/A
5,Arkansas,AR,72106,Faulkner,Mayflower,34.97399,-92.5261
5,Arkansas,AR,72107,Conway,Menifee,35.14182,-92.5362
5,Arkansas,AR,72108,Monroe,Monroe,34.68779,-91.066
5,Arkansas,AR,72110,Conway,Morrilton,35.1565,-92.7813
5,Arkansas,AR,72111,Faulkner,Mount vernon,35.23855,-92.1313
5,Arkansas,AR,72112,Jackson,Newport,35.58092,-91.2297
5,Arkansas,AR,72113,Pulaski,Maumelle,34.85956,-92.3976
5,Arkansas,AR,72114,Pulaski,North little roc,34.7649,-92.2603
5,Arkansas,AR,72116,Pulaski,Sherwood,34.80026,-92.2453
5,Arkansas,AR,72117,Pulaski,North little roc,34.76985,-92.1454
5,Arkansas,AR,72118,Pulaski,Camp joseph t ro,34.84047,-92.326
5,Arkansas,AR,72120,Pulaski,North little roc,34.90204,-92.2408
5,Arkansas,AR,72121,White,Pangburn,35.45532,-91.7861
5,Arkansas,AR,72122,Saline,Paron,34.77788,-92.8084
5,Arkansas,AR,72123,Woodruff,Patterson,35.25876,-91.2354
5,Arkansas,AR,72125,Conway,Perry,35.06619,-92.7907
5,Arkansas,AR,72126,Perry,Perryville,34.94277,-92.9162
5,Arkansas,AR,72127,Conway,Plumerville,35.17311,-92.606
5,Arkansas,AR,72128,Grant,Poyen,34.31308,-92.6214
5,Arkansas,AR,72129,Grant,Prattsville,34.32564,-92.5427
5,Arkansas,AR,72130,Cleburne,Prim,35.6614,-92.0564
5,Arkansas,AR,72131,Cleburne,Quitman,35.41605,-92.1895
5,Arkansas,AR,72132,Jefferson,Redfield,34.44627,-92.2048
5,Arkansas,AR,72133,Jefferson,Reydell,#N/A,#N/A
5,Arkansas,AR,72134,Monroe,Roe,34.61777,-91.3506
5,Arkansas,AR,72135,Pulaski,Roland,34.87784,-92.5401
5,Arkansas,AR,72136,White,Romance,35.24113,-92.0054
5,Arkansas,AR,72137,White,Rose bud,35.33627,-92.0422
5,Arkansas,AR,72139,White,Russell,35.361,-91.5078
5,Arkansas,AR,72140,Arkansas,Saint charles,34.36246,-91.1672
5,Arkansas,AR,72141,Van Buren,Scotland,35.51331,-92.6722
5,Arkansas,AR,72142,Lonoke,Scott,34.69728,-92.0438
5,Arkansas,AR,72143,White,Georgetown,35.23298,-91.7365
5,Arkansas,AR,72150,Grant,Sheridan,34.31334,-92.3941
5,Arkansas,AR,72152,Jefferson,Sherrill,34.35611,-91.9793
5,Arkansas,AR,72153,Van Buren,Shirley,35.64612,-92.3263
5,Arkansas,AR,72156,Conway,Solgohachia,35.28104,-92.685
5,Arkansas,AR,72157,Conway,Springfield,35.27125,-92.5567
5,Arkansas,AR,72160,Arkansas,Stuttgart,34.42774,-91.5287
5,Arkansas,AR,72165,Independence,Thida,35.57545,-91.458
5,Arkansas,AR,72166,Arkansas,Tichnor,34.0691,-91.2219
5,Arkansas,AR,72167,Saline,Traskwood,34.4178,-92.6475
5,Arkansas,AR,72168,Jefferson,Tucker,34.44006,-91.9718
5,Arkansas,AR,72169,Jackson,Tupelo,35.39649,-91.2266
5,Arkansas,AR,72170,Prairie,Ulm,34.586,-91.4175
5,Arkansas,AR,72173,Faulkner,Vilonia,35.1001,-92.2111
5,Arkansas,AR,72175,Jefferson,Wabbaseka,34.33672,-91.764
5,Arkansas,AR,72176,Lonoke,Ward,35.00236,-91.8352
5,Arkansas,AR,72179,Cleburne,Wilburn,35.50359,-91.8556
5,Arkansas,AR,72180,Pulaski,Woodson,#N/A,#N/A
5,Arkansas,AR,72181,Faulkner,Wooster,35.1624,-92.4452
5,Arkansas,AR,72183,Pulaski,Wrightsville,#N/A,#N/A
5,Arkansas,AR,721HH,Arkansas,Zcta 721hh,#N/A,#N/A
5,Arkansas,AR,721XX,Saline,Zcta 721xx,#N/A,#N/A
5,Arkansas,AR,72201,Pulaski,Little rock,34.74691,-92.28
5,Arkansas,AR,72202,Pulaski,Little rock,34.73057,-92.233
5,Arkansas,AR,72204,Pulaski,Little rock,34.71762,-92.3583
5,Arkansas,AR,72205,Pulaski,Little rock,34.75033,-92.3512
5,Arkansas,AR,72206,Pulaski,Little rock,34.63281,-92.235
5,Arkansas,AR,72207,Pulaski,Little rock,34.77353,-92.3465
5,Arkansas,AR,72209,Pulaski,Little rock,34.67638,-92.3451
5,Arkansas,AR,72210,Pulaski,Little rock,34.7139,-92.5085
5,Arkansas,AR,72211,Pulaski,Little rock,34.75056,-92.4176
5,Arkansas,AR,72212,Pulaski,Little rock,34.78589,-92.415
5,Arkansas,AR,72223,Pulaski,Little rock,34.78898,-92.5116
5,Arkansas,AR,72227,Pulaski,Little rock,34.77528,-92.3746
5,Arkansas,AR,722HH,Pulaski,Zcta 722hh,#N/A,#N/A
5,Arkansas,AR,72301,Crittenden,West memphis,35.14469,-90.1892
5,Arkansas,AR,72311,Lee,Aubrey,34.72383,-90.8915
5,Arkansas,AR,72315,Mississippi,Blytheville a f,35.90267,-89.9034
5,Arkansas,AR,72320,Lee,Brickeys,34.82433,-90.5247
5,Arkansas,AR,72321,Mississippi,Burdette,35.81594,-89.9447
5,Arkansas,AR,72322,St. Francis,Caldwell,35.06494,-90.8221
5,Arkansas,AR,72324,Cross,Cherry valley,35.39042,-90.7866
5,Arkansas,AR,72326,St. Francis,Colt,35.11626,-90.9079
5,Arkansas,AR,72327,Crittenden,Crawfordsville,35.23295,-90.3338
5,Arkansas,AR,72328,Phillips,Crumrod,33.98602,-91.0912
5,Arkansas,AR,72329,Mississippi,Driver,35.61457,-89.9881
5,Arkansas,AR,72330,Mississippi,Dyess,35.58779,-90.2103
5,Arkansas,AR,72331,Crittenden,Earle,35.28103,-90.4663
5,Arkansas,AR,72332,Crittenden,Edmondson,35.10195,-90.3088
5,Arkansas,AR,72333,Phillips,Elaine,34.30201,-90.8666
5,Arkansas,AR,72335,St. Francis,Forrest city,34.99436,-90.746
5,Arkansas,AR,72338,Mississippi,Frenchmans bayou,35.40076,-90.1544
5,Arkansas,AR,72339,Crittenden,Gilmore,35.42201,-90.2681
5,Arkansas,AR,72340,St. Francis,Goodwin,34.93932,-91.0278
5,Arkansas,AR,72341,Lee,Haynes,34.87839,-90.7691
5,Arkansas,AR,72342,Phillips,Helena,34.44896,-90.6845
5,Arkansas,AR,72346,St. Francis,Heth,35.08233,-90.4845
5,Arkansas,AR,72347,Cross,Hickory ridge,35.37774,-91.0144
5,Arkansas,AR,72348,St. Francis,Hughes,34.94176,-90.4179
5,Arkansas,AR,72350,Mississippi,Joiner,35.49975,-90.1293
5,Arkansas,AR,72351,Mississippi,Keiser,35.67371,-90.0964
5,Arkansas,AR,72353,Phillips,Lambrook,34.30052,-91.0073
5,Arkansas,AR,72354,Poinsett,Lepanto,35.61886,-90.3193
5,Arkansas,AR,72355,Phillips,Lexa,34.4742,-90.7977
5,Arkansas,AR,72358,Mississippi,Luxora,35.79209,-89.8924
5,Arkansas,AR,72359,St. Francis,Madison,35.02636,-90.7221
5,Arkansas,AR,72360,Lee,Marianna,34.7503,-90.7808
5,Arkansas,AR,72364,Crittenden,Marion,35.21754,-90.1892
5,Arkansas,AR,72365,Poinsett,Marked tree,35.52094,-90.4501
5,Arkansas,AR,72366,Phillips,Marvell,34.51811,-90.9609
5,Arkansas,AR,72367,Phillips,Mellwood,34.19733,-90.9439
5,Arkansas,AR,72368,Lee,Moro,34.8104,-91.0234
5,Arkansas,AR,72369,Phillips,Oneida,#N/A,#N/A
5,Arkansas,AR,72370,Mississippi,Osceola,35.71448,-90.0277
5,Arkansas,AR,72372,St. Francis,Palestine,34.96759,-90.9506
5,Arkansas,AR,72373,Cross,Parkin,35.30868,-90.5942
5,Arkansas,AR,72374,Phillips,Poplar grove,34.56634,-90.8335
5,Arkansas,AR,72376,Crittenden,Proctor,35.08723,-90.2998
5,Arkansas,AR,72377,Poinsett,Rivervale,35.69283,-90.336
5,Arkansas,AR,72379,Desha,Snow lake,34.05478,-91.041
5,Arkansas,AR,72383,Phillips,Turner,34.49106,-91.0396
5,Arkansas,AR,72384,Crittenden,Turrell,35.3758,-90.2195
5,Arkansas,AR,72386,Poinsett,Tyronza,35.45024,-90.366
5,Arkansas,AR,72387,Cross,Vanndale,#N/A,#N/A
5,Arkansas,AR,72389,Phillips,Wabash,34.37134,-90.9121
5,Arkansas,AR,72390,Phillips,West helena,34.55105,-90.6794
5,Arkansas,AR,72392,St. Francis,Wheatley,34.9656,-91.1006
5,Arkansas,AR,72394,St. Francis,Widener,35.06003,-90.614
5,Arkansas,AR,72395,Mississippi,Wilson,35.59309,-90.0812
5,Arkansas,AR,72396,Cross,Wynne,35.23009,-90.8225
5,Arkansas,AR,723HH,Crittenden,Zcta 723hh,#N/A,#N/A
5,Arkansas,AR,723XX,Desha,Zcta 723xx,#N/A,#N/A
5,Arkansas,AR,72401,Craighead,Jonesboro,35.88634,-90.6568
5,Arkansas,AR,72404,Craighead,Zcta 72404,35.77386,-90.7788
5,Arkansas,AR,72410,Lawrence,Alicia,35.94748,-91.0976
5,Arkansas,AR,72411,Craighead,Bay,35.74509,-90.5755
5,Arkansas,AR,72412,Greene,Beech grove,36.12417,-90.6944
5,Arkansas,AR,72413,Randolph,Biggers,36.30183,-90.8222
5,Arkansas,AR,72414,Craighead,Black oak,35.82461,-90.374
5,Arkansas,AR,72415,Lawrence,Black rock,36.12667,-91.175
5,Arkansas,AR,72416,Craighead,Bono,35.96398,-90.7957
5,Arkansas,AR,72417,Craighead,Brookland,35.91628,-90.5395
5,Arkansas,AR,72419,Craighead,Caraway,35.7496,-90.3536
5,Arkansas,AR,72421,Craighead,Cash,35.78532,-90.972
5,Arkansas,AR,72422,Clay,Corning,36.42456,-90.5195
5,Arkansas,AR,72424,Clay,Datto,36.39053,-90.7364
5,Arkansas,AR,72425,Greene,Delaplaine,36.21527,-90.7392
5,Arkansas,AR,72426,Mississippi,Dell,35.86821,-90.0416
5,Arkansas,AR,72427,Craighead,Egypt,35.86706,-90.9358
5,Arkansas,AR,72428,Mississippi,Etowah,35.73935,-90.2246
5,Arkansas,AR,72429,Poinsett,Fisher,35.50608,-90.9284
5,Arkansas,AR,72430,Clay,Greenway,36.33453,-90.1713
5,Arkansas,AR,72431,Jackson,Grubbs,35.63257,-91.0794
5,Arkansas,AR,72432,Poinsett,Harrisburg,35.55269,-90.72
5,Arkansas,AR,72433,Lawrence,Hoxie,36.02574,-91.0476
5,Arkansas,AR,72434,Lawrence,Imboden,36.21754,-91.1564
5,Arkansas,AR,72435,Clay,Knobel,36.31576,-90.5791
5,Arkansas,AR,72436,Greene,Lafe,36.23578,-90.4851
5,Arkansas,AR,72437,Craighead,Lake city,35.84838,-90.4583
5,Arkansas,AR,72438,Mississippi,Leachville,35.94911,-90.2178
5,Arkansas,AR,72440,Lawrence,Lynn,36.00556,-91.2271
5,Arkansas,AR,72441,Clay,Mc dougal,36.43695,-90.3853
5,Arkansas,AR,72442,Mississippi,Roseland,35.81857,-90.1867
5,Arkansas,AR,72443,Greene,Marmaduke,36.17577,-90.4114
5,Arkansas,AR,72444,Randolph,Maynard,36.42865,-90.8528
5,Arkansas,AR,72445,Lawrence,Minturn,35.9765,-91.0266
5,Arkansas,AR,72447,Craighead,Monette,35.90891,-90.3284
5,Arkansas,AR,72449,Randolph,O kean,36.17747,-90.8196
5,Arkansas,AR,72450,Greene,Paragould,36.07955,-90.5164
5,Arkansas,AR,72453,Clay,Peach orchard,36.29458,-90.708
5,Arkansas,AR,72454,Clay,Piggott,36.40677,-90.2026
5,Arkansas,AR,72455,Randolph,Pocahontas,36.31965,-91.0292
5,Arkansas,AR,72456,Clay,Pollard,36.44725,-90.3384
5,Arkansas,AR,72457,Lawrence,Portia,36.08889,-91.0682
5,Arkansas,AR,72458,Lawrence,Powhatan,36.0726,-91.1585
5,Arkansas,AR,72459,Lawrence,Ravenden,36.29252,-91.293
5,Arkansas,AR,72460,Randolph,Ravenden springs,36.34982,-91.1693
5,Arkansas,AR,72461,Clay,Rector,36.26615,-90.2852
5,Arkansas,AR,72462,Randolph,Reyno,36.38912,-90.7593
5,Arkansas,AR,72464,Clay,Saint francis,36.45775,-90.1441
5,Arkansas,AR,72466,Lawrence,Smithville,36.05379,-91.3307
5,Arkansas,AR,72467,Craighead,State university,35.84104,-90.6756
5,Arkansas,AR,72469,Lawrence,Calamine,35.95182,-91.2891
5,Arkansas,AR,72470,Clay,Success,36.47468,-90.6923
5,Arkansas,AR,72471,Jackson,Swifton,35.82787,-91.1101
5,Arkansas,AR,72472,Poinsett,Payneway,35.59645,-90.5342
5,Arkansas,AR,72473,Jackson,Tuckerman,35.73828,-91.1713
5,Arkansas,AR,72475,Poinsett,Waldenburg,#N/A,#N/A
5,Arkansas,AR,72476,Lawrence,College city,36.04951,-90.9199
5,Arkansas,AR,72478,Randolph,Warm springs,36.44788,-91.059
5,Arkansas,AR,72479,Poinsett,Weiner,35.63366,-90.9055
5,Arkansas,AR,72482,Sharp,Williford,36.27756,-91.3675
5,Arkansas,AR,724HH,Lawrence,Zcta 724hh,#N/A,#N/A
5,Arkansas,AR,72501,Independence,Batesville,35.79117,-91.6534
5,Arkansas,AR,72512,Izard,Horseshoe bend,36.22042,-91.7463
5,Arkansas,AR,72513,Sharp,Agnos,36.22629,-91.6583
5,Arkansas,AR,72515,Fulton,Bexar,36.27638,-92.0564
5,Arkansas,AR,72517,Izard,Brockwell,36.13231,-91.9733
5,Arkansas,AR,72519,Izard,Jordan,36.13412,-92.1803
5,Arkansas,AR,72520,Fulton,Camp,36.3909,-91.7202
5,Arkansas,AR,72521,Sharp,Cave city,35.94967,-91.5411
5,Arkansas,AR,72522,Independence,Charlotte,35.81089,-91.4704
5,Arkansas,AR,72523,Cleburne,Concord,35.62779,-91.8447
5,Arkansas,AR,72524,Independence,Cord,35.84022,-91.3114
5,Arkansas,AR,72525,Fulton,Cherokee village,#N/A,#N/A
5,Arkansas,AR,72526,Independence,Cushman,35.8832,-91.7793
5,Arkansas,AR,72527,Independence,Desha,35.73986,-91.685
5,Arkansas,AR,72528,Izard,Dolph,36.22749,-92.1383
5,Arkansas,AR,72529,Sharp,Cherokee village,36.29182,-91.5643
5,Arkansas,AR,72530,Cleburne,Drasco,35.60392,-91.9447
5,Arkansas,AR,72531,Fulton,Elizabeth,36.33023,-92.1398
5,Arkansas,AR,72532,Sharp,Evening shade,36.10396,-91.6006
5,Arkansas,AR,72533,Stone,Fifty six,35.97846,-92.247
5,Arkansas,AR,72534,Independence,Floral,35.60104,-91.7444
5,Arkansas,AR,72536,Izard,Franklin,36.14417,-91.7683
5,Arkansas,AR,72537,Baxter,Gamaliel,36.44613,-92.2226
5,Arkansas,AR,72538,Fulton,Gepp,36.44557,-92.1003
5,Arkansas,AR,72539,Fulton,Glencoe,36.33214,-91.7111
5,Arkansas,AR,72540,Izard,Guion,35.9194,-91.91
5,Arkansas,AR,72542,Sharp,Hardy,36.3004,-91.466
5,Arkansas,AR,72543,Cleburne,Heber springs,35.45054,-91.9873
5,Arkansas,AR,72544,Baxter,Henderson,36.40365,-92.1897
5,Arkansas,AR,72550,Independence,Locust grove,35.71013,-91.784
5,Arkansas,AR,72553,Independence,Magness,35.70051,-91.4808
5,Arkansas,AR,72554,Fulton,Mammoth spring,36.4387,-91.5622
5,Arkansas,AR,72555,Stone,Marcella,35.78144,-91.8753
5,Arkansas,AR,72556,Izard,Zion,36.01388,-91.97
5,Arkansas,AR,72560,Stone,Hanover,35.85101,-92.0941
5,Arkansas,AR,72561,Izard,Mount pleasant,35.94906,-91.8077
5,Arkansas,AR,72562,Independence,Newark,35.73547,-91.4011
5,Arkansas,AR,72564,Independence,Oil trough,35.59588,-91.4566
5,Arkansas,AR,72565,Izard,Oxford,36.21742,-91.9128
5,Arkansas,AR,72566,Izard,Pineville,36.21676,-92.078
5,Arkansas,AR,72567,Stone,Pleasant grove,35.81457,-91.926
5,Arkansas,AR,72568,Independence,Pleasant plains,35.5694,-91.625
5,Arkansas,AR,72569,Sharp,Poughkeepsie,36.14618,-91.3994
5,Arkansas,AR,72571,Independence,Rosie,35.64168,-91.5512
5,Arkansas,AR,72572,Lawrence,Saffell,35.89914,-91.291
5,Arkansas,AR,72573,Izard,Sage,36.07617,-91.7974
5,Arkansas,AR,72576,Fulton,Byron,36.34852,-91.856
5,Arkansas,AR,72577,Sharp,Sidney,36.02713,-91.7139
5,Arkansas,AR,72578,Fulton,Sturkie,36.45315,-91.8864
5,Arkansas,AR,72579,Independence,Sulphur rock,35.84882,-91.4492
5,Arkansas,AR,72581,Cleburne,Tumbling shoals,35.55095,-91.9892
5,Arkansas,AR,72583,Fulton,Viola,36.41478,-91.9941
5,Arkansas,AR,72584,Izard,Violet hill,36.141,-91.8437
5,Arkansas,AR,72585,Izard,Wideman,36.18322,-92.0081
5,Arkansas,AR,72587,Izard,Wiseman,36.22559,-91.8168
5,Arkansas,AR,725HH,Baxter,Zcta 725hh,#N/A,#N/A
5,Arkansas,AR,72601,Boone,Harrison,36.23803,-93.086
5,Arkansas,AR,72610,Searcy,Alco,#N/A,#N/A
5,Arkansas,AR,72611,Carroll,Alpena,36.2448,-93.3307
5,Arkansas,AR,72616,Carroll,Berryville,36.32914,-93.5519
5,Arkansas,AR,72617,Baxter,Big flat,36.02295,-92.3906
5,Arkansas,AR,72619,Marion,Bull shoals,36.37357,-92.5915
5,Arkansas,AR,72623,Baxter,Clarkridge,36.44765,-92.3208
5,Arkansas,AR,72624,Newton,Compton,36.05772,-93.3818
5,Arkansas,AR,72626,Baxter,Cotter,36.32218,-92.5515
5,Arkansas,AR,72628,Newton,Deer,35.83988,-93.2818
5,Arkansas,AR,72629,Van Buren,Dennard,35.7385,-92.5668
5,Arkansas,AR,72630,Boone,Diamond city,36.47879,-92.9049
5,Arkansas,AR,72631,Carroll,Zcta 72631,36.46761,-93.8344
5,Arkansas,AR,72632,Carroll,Eureka springs,36.37321,-93.7439
5,Arkansas,AR,72633,Boone,Everton,36.12888,-92.8728
5,Arkansas,AR,72634,Marion,Flippin,36.20353,-92.5261
5,Arkansas,AR,72635,Baxter,Gassville,36.31836,-92.5138
